route_name,direction_name,stop_id,stop_name,stop_do
Green Line D branch,Westbound,70210,Lechmere -  Inbound,1
Green Line D branch,Westbound,70208,Science Park - Inbound,2
Green Line D branch,Westbound,70206,North Station - Green Line Inbound,3
Green Line D branch,Westbound,70204,Haymarket - Green Line Inbound,4
Green Line D branch,Westbound,70202,Government Center - Green Line Westbound,5
Green Line D branch,Westbound,70198,Park Street - Green Line - D Branch Berth,6
Green Line D branch,Westbound,70159,Boylston - Outbound,7
Green Line D branch,Westbound,70157,Arlington - Outbound,8
Green Line D branch,Westbound,70155,Copley - Outbound,9
Green Line D branch,Westbound,70153,Hynes - Outbound,10
Green Line D branch,Westbound,70151,Kenmore - Outbound,11
Green Line D branch,Westbound,70187,Fenway - Outbound,12
Green Line D branch,Westbound,70183,Longwood - Outbound,13
Green Line D branch,Westbound,70181,Brookline Village - Outbound,14
Green Line D branch,Westbound,70179,Brookline Hills - Outbound,15
Green Line D branch,Westbound,70177,Beaconsfield - Outbound,16
Green Line D branch,Westbound,70175,Reservoir - Outbound,17
Green Line D branch,Westbound,70173,Chestnut Hill - Outbound,18
Green Line D branch,Westbound,70171,Newton Centre - Outbound,19
Green Line D branch,Westbound,70169,Newton Highlands - Outbound,20
Green Line D branch,Westbound,70167,Eliot - Outbound,21
Green Line D branch,Westbound,70165,Waban - Outbound,22
Green Line D branch,Westbound,70163,Woodland - Outbound,23
Green Line D branch,Westbound,70161,Riverside - Outbound,24
Green Line D branch,Eastbound,70160,Riverside - Inbound,1
Green Line D branch,Eastbound,70162,Woodland - Inbound,2
Green Line D branch,Eastbound,70164,Waban - Inbound,3
Green Line D branch,Eastbound,70166,Eliot - Inbound,4
Green Line D branch,Eastbound,70168,Newton Highlands - Inbound,5
Green Line D branch,Eastbound,70170,Newton Centre - Inbound,6
Green Line D branch,Eastbound,70172,Chestnut Hill - Inbound,7
Green Line D branch,Eastbound,70174,Reservoir - Inbound,8
Green Line D branch,Eastbound,70176,Beaconsfield - Inbound,9
Green Line D branch,Eastbound,70178,Brookline Hills - Inbound,10
Green Line D branch,Eastbound,70180,Brookline Village - Inbound,11
Green Line D branch,Eastbound,70182,Longwood - Inbound,12
Green Line D branch,Eastbound,70186,Fenway - Inbound,13
Green Line D branch,Eastbound,70150,Kenmore - Inbound,14
Green Line D branch,Eastbound,70152,Hynes - Inbound,15
Green Line D branch,Eastbound,70154,Copley - Inbound,16
Green Line D branch,Eastbound,70156,Arlington - Inbound,17
Green Line D branch,Eastbound,70158,Boylston - Inbound,18
Green Line D branch,Eastbound,70200,Park Street - Green Line Eastbound,19
Green Line D branch,Eastbound,70201,Government Center - Green Line Eastbound,20
Green Line D branch,Eastbound,70203,Haymarket - Green Line Outbound,21
Green Line D branch,Eastbound,70205,North Station - Green Line Outbound,22
Green Line D branch,Eastbound,70207,Science Park - Outbound,23
Green Line D branch,Eastbound,70209,Lechmere - Outbound,24
Green Line D,Westbound,70210,Lechmere -  Inbound,1
Green Line D,Westbound,70208,Science Park - Inbound,2
Green Line D,Westbound,70206,North Station - Green Line Inbound,3
Green Line D,Westbound,70204,Haymarket - Green Line Inbound,4
Green Line D,Westbound,70202,Government Center - Green Line Westbound,5
Green Line D,Westbound,70198,Park Street - Green Line - D Berth,6
Green Line D,Westbound,70159,Boylston - Outbound,7
Green Line D,Westbound,70157,Arlington - Outbound,8
Green Line D,Westbound,70155,Copley - Outbound,9
Green Line D,Westbound,70153,Hynes - Outbound,10
Green Line D,Westbound,70151,Kenmore - Outbound,11
Green Line D,Westbound,70187,Fenway - Outbound,12
Green Line D,Westbound,70183,Longwood - Outbound,13
Green Line D,Westbound,70181,Brookline Village - Outbound,14
Green Line D,Westbound,70179,Brookline Hills - Outbound,15
Green Line D,Westbound,70177,Beaconsfield - Outbound,16
Green Line D,Westbound,70175,Reservoir - Outbound,17
Green Line D,Westbound,70173,Chestnut Hill - Outbound,18
Green Line D,Westbound,70171,Newton Centre - Outbound,19
Green Line D,Westbound,70169,Newton Highlands - Outbound,20
Green Line D,Westbound,70167,Eliot - Outbound,21
Green Line D,Westbound,70165,Waban - Outbound,22
Green Line D,Westbound,70163,Woodland - Outbound,23
Green Line D,Westbound,70161,Riverside - Outbound,24
Green Line D,Eastbound,70160,Riverside - Inbound,1
Green Line D,Eastbound,70162,Woodland - Inbound,2
Green Line D,Eastbound,70164,Waban - Inbound,3
Green Line D,Eastbound,70166,Eliot - Inbound,4
Green Line D,Eastbound,70168,Newton Highlands - Inbound,5
Green Line D,Eastbound,70170,Newton Centre - Inbound,6
Green Line D,Eastbound,70172,Chestnut Hill - Inbound,7
Green Line D,Eastbound,70174,Reservoir - Inbound,8
Green Line D,Eastbound,70176,Beaconsfield - Inbound,9
Green Line D,Eastbound,70178,Brookline Hills - Inbound,10
Green Line D,Eastbound,70180,Brookline Village - Inbound,11
Green Line D,Eastbound,70182,Longwood - Inbound,12
Green Line D,Eastbound,70186,Fenway - Inbound,13
Green Line D,Eastbound,70150,Kenmore - Inbound,14
Green Line D,Eastbound,70152,Hynes - Inbound,15
Green Line D,Eastbound,70154,Copley - Inbound,16
Green Line D,Eastbound,70156,Arlington - Inbound,17
Green Line D,Eastbound,70158,Boylston - Inbound,18
Green Line D,Eastbound,70200,Park Street - Green Line Eastbound,19
Green Line D,Eastbound,70201,Government Center - Green Line Eastbound,20
Green Line D,Eastbound,70203,Haymarket - Green Line Outbound,21
Green Line D,Eastbound,70205,North Station - Green Line Outbound,22
Green Line D,Eastbound,70207,Science Park - Outbound,23
Green Line D,Eastbound,70209,Lechmere - Outbound,24
Haverhill Line,Outbound,North Station,North Station,1
Haverhill Line,Outbound,Malden Center,Malden Center,2
Haverhill Line,Outbound,Wyoming Hill,Wyoming Hill,3
Haverhill Line,Outbound,Melrose Cedar Park,Melrose Cedar Park,4
Haverhill Line,Outbound,Melrose Highlands,Melrose Highlands,5
Haverhill Line,Outbound,Greenwood,Greenwood,6
Haverhill Line,Outbound,Wakefield,Wakefield,7
Haverhill Line,Outbound,Reading,Reading,8
Haverhill Line,Outbound,North Wilmington,North Wilmington,9
Haverhill Line,Outbound,Ballardvale,Ballardvale,10
Haverhill Line,Outbound,Andover,Andover,11
Haverhill Line,Outbound,Lawrence,Lawrence,12
Haverhill Line,Outbound,Bradford,Bradford,13
Haverhill Line,Outbound,Haverhill,Haverhill,14
Haverhill Line,Outbound,West Medford,West Medford,15
Haverhill Line,Outbound,Wedgemere,Wedgemere,16
Haverhill Line,Outbound,Winchester Center,Winchester Center,17
Haverhill Line,Outbound,Anderson/ Woburn,Anderson/ Woburn,18
Haverhill Line,Outbound,Wilmington,Wilmington,19
Haverhill Line,Inbound,Haverhill,Haverhill,1
Haverhill Line,Inbound,Bradford,Bradford,2
Haverhill Line,Inbound,Lawrence,Lawrence,3
Haverhill Line,Inbound,Andover,Andover,4
Haverhill Line,Inbound,Ballardvale,Ballardvale,5
Haverhill Line,Inbound,North Wilmington,North Wilmington,6
Haverhill Line,Inbound,Reading,Reading,7
Haverhill Line,Inbound,Wakefield,Wakefield,8
Haverhill Line,Inbound,Greenwood,Greenwood,9
Haverhill Line,Inbound,Melrose Highlands,Melrose Highlands,10
Haverhill Line,Inbound,Melrose Cedar Park,Melrose Cedar Park,11
Haverhill Line,Inbound,Wyoming Hill,Wyoming Hill,12
Haverhill Line,Inbound,Malden Center,Malden Center,13
Haverhill Line,Inbound,North Station,North Station,14
Haverhill Line,Inbound,Wilmington,Wilmington,15
Haverhill Line,Inbound,Anderson/ Woburn,Anderson/ Woburn,16
Haverhill Line,Inbound,Wedgemere,Wedgemere,17
Haverhill Line,Inbound,Winchester Center,Winchester Center,18
Haverhill Line,Inbound,West Medford,West Medford,19
Franklin Line,Inbound,Forge Park / 495,Forge Park / 495,1
Franklin Line,Inbound,Franklin,Franklin,2
Franklin Line,Inbound,Norfolk,Norfolk,3
Franklin Line,Inbound,Walpole,Walpole,4
Franklin Line,Inbound,Plimptonville,Plimptonville,5
Franklin Line,Inbound,Windsor Gardens,Windsor Gardens,6
Franklin Line,Inbound,Norwood Central,Norwood Central,7
Franklin Line,Inbound,Norwood Depot,Norwood Depot,8
Franklin Line,Inbound,Islington,Islington,9
Franklin Line,Inbound,Dedham Corp Center,Dedham Corp Center,10
Franklin Line,Inbound,Endicott,Endicott,11
Franklin Line,Inbound,Readville,Readville,12
Franklin Line,Inbound,Hyde Park,Hyde Park,13
Franklin Line,Inbound,Ruggles,Ruggles,14
Franklin Line,Inbound,Back Bay,Back Bay,15
Franklin Line,Inbound,South Station,South Station,16
Franklin Line,Inbound,Fairmount,Fairmount,17
Franklin Line,Inbound,Morton Street,Morton Street,18
Franklin Line,Inbound,Talbot Avenue,Talbot Avenue,19
Franklin Line,Inbound,Four Corners / Geneva,Four Corners / Geneva,20
Franklin Line,Inbound,Uphams Corner,Uphams Corner,21
Franklin Line,Inbound,Newmarket,Newmarket,22
Red Line,Southbound,70061,Alewife,1
Red Line,Southbound,70063,Davis - Inbound,2
Red Line,Southbound,70065,Porter - Inbound,3
Red Line,Southbound,70067,Harvard - Inbound,4
Red Line,Southbound,70069,Central - Inbound,5
Red Line,Southbound,70071,Kendall/MIT - Inbound,6
Red Line,Southbound,70073,Charles/MGH - Inbound,7
Red Line,Southbound,70075,Park Street - to Ashmont/Braintree,8
Red Line,Southbound,70077,Downtown Crossing - to Ashmont/Braintree,9
Red Line,Southbound,70079,South Station - Outbound,10
Red Line,Southbound,70081,Broadway - Outbound,11
Red Line,Southbound,70083,Andrew - Outbound,12
Red Line,Southbound,70085,JFK/UMASS Ashmont - Outbound,13
Red Line,Southbound,70087,Savin Hill - Outbound,14
Red Line,Southbound,70089,Fields Corner - Outbound,15
Red Line,Southbound,70091,Shawmut - Outbound,16
Red Line,Southbound,70093,Ashmont - Outbound,17
Red Line,Southbound,70095,JFK/UMASS Braintree - Outbound,18
Red Line,Southbound,70097,North Quincy - Outbound,19
Red Line,Southbound,70099,Wollaston - Outbound,20
Red Line,Southbound,70101,Quincy Center - Outbound,21
Red Line,Southbound,70103,Quincy Adams - Outbound,22
Red Line,Southbound,70105,Braintree,23
Red Line,Northbound,70105,Braintree,1
Red Line,Northbound,70104,Quincy Adams - Inbound,2
Red Line,Northbound,70102,Quincy Center - Inbound,3
Red Line,Northbound,70100,Wollaston - Inbound,4
Red Line,Northbound,70098,North Quincy - Inbound,5
Red Line,Northbound,70096,JFK/UMASS Braintree - Inbound,6
Red Line,Northbound,70094,Ashmont - Inbound,7
Red Line,Northbound,70092,Shawmut - Inbound,8
Red Line,Northbound,70090,Fields Corner - Inbound,9
Red Line,Northbound,70088,Savin Hill - Inbound,10
Red Line,Northbound,70086,JFK/UMASS Ashmont - Inbound,11
Red Line,Northbound,70084,Andrew - Inbound,12
Red Line,Northbound,70082,Broadway - Inbound,13
Red Line,Northbound,70080,South Station - Inbound,14
Red Line,Northbound,70078,Downtown Crossing - to Alewife,15
Red Line,Northbound,70076,Park Street - to Alewife,16
Red Line,Northbound,70074,Charles/MGH - Outbound,17
Red Line,Northbound,70072,Kendall/MIT - Outbound,18
Red Line,Northbound,70070,Central - Outbound,19
Red Line,Northbound,70068,Harvard - Outbound,20
Red Line,Northbound,70066,Porter - Outbound,21
Red Line,Northbound,70064,Davis - Outbound,22
Red Line,Northbound,70061,Alewife,23
Green Line,Westbound,70210,Lechmere -  Inbound,1
Green Line,Westbound,70208,Science Park - Inbound,2
Green Line,Westbound,70206,North Station - Green Line Inbound,3
Green Line,Westbound,70204,Haymarket - Green Line Inbound,4
Green Line,Westbound,70202,Government Center - Green Line Westbound,5
Green Line,Westbound,70196,Park Street - Green Line - B Branch Berth,6
Green Line,Westbound,70197,Park Street - Green Line - C Branch Berth,7
Green Line,Westbound,70198,Park Street - Green Line - D Branch Berth,8
Green Line,Westbound,70199,Park Street - Green Line - E Branch Berth,9
Green Line,Westbound,70159,Boylston - Outbound,10
Green Line,Westbound,70157,Arlington - Outbound,11
Green Line,Westbound,70155,Copley - Outbound,12
Green Line,Westbound,70153,Hynes - Outbound,13
Green Line,Westbound,70151,Kenmore - Outbound,14
Green Line,Westbound,70149,Blandford Street - Outbound,15
Green Line,Westbound,70147,Boston Univ East - Outbound,16
Green Line,Westbound,70145,Boston Univ Central - Outbound,17
Green Line,Westbound,70143,Boston Univ West - Outbound,18
Green Line,Westbound,70141,Saint Paul Street - Outbound,19
Green Line,Westbound,70139,Pleasant Street - Outbound,20
Green Line,Westbound,70137,Babcock Street - Outbound,21
Green Line,Westbound,70135,Packards Corner - Outbound,22
Green Line,Westbound,70131,Harvard Avenue - Outbound,23
Green Line,Westbound,70129,Griggs Street - Outbound,24
Green Line,Westbound,70127,Allston Street - Outbound,25
Green Line,Westbound,70125,Warren Street - Outbound,26
Green Line,Westbound,70121,Washington Street - Outbound,27
Green Line,Westbound,70117,Sutherland Road - Outbound,28
Green Line,Westbound,70115,Chiswick Road - Outbound,29
Green Line,Westbound,70113,Chestnut Hill Avenue - Outbound,30
Green Line,Westbound,70111,South Street - Outbound,31
Green Line,Westbound,70107,Boston College - Outbound,32
Green Line,Westbound,70211,Saint Mary Street - Outbound,33
Green Line,Westbound,70213,Hawes Street - Outbound,34
Green Line,Westbound,70215,Kent Street - Outbound,35
Green Line,Westbound,70217,Saint Paul Street - Outbound,36
Green Line,Westbound,70219,Coolidge Corner - Outbound,37
Green Line,Westbound,70223,Summit Avenue - Outbound,38
Green Line,Westbound,70225,Brandon Hall - Outbound,39
Green Line,Westbound,70227,Fairbanks Street - Outbound,40
Green Line,Westbound,70229,Washington Square - Outbound,41
Green Line,Westbound,70231,Tappan Street - Outbound,42
Green Line,Westbound,70233,Dean Road - Outbound,43
Green Line,Westbound,70235,Englewood Avenue - Outbound,44
Green Line,Westbound,70237,Cleveland Circle - Outbound,45
Green Line,Westbound,70187,Fenway - Outbound,46
Green Line,Westbound,70183,Longwood - Outbound,47
Green Line,Westbound,70181,Brookline Village - Outbound,48
Green Line,Westbound,70179,Brookline Hills - Outbound,49
Green Line,Westbound,70177,Beaconsfield - Outbound,50
Green Line,Westbound,70175,Reservoir - Outbound,51
Green Line,Westbound,70173,Chestnut Hill - Outbound,52
Green Line,Westbound,70171,Newton Centre - Outbound,53
Green Line,Westbound,70169,Newton Highlands - Outbound,54
Green Line,Westbound,70167,Eliot - Outbound,55
Green Line,Westbound,70165,Waban - Outbound,56
Green Line,Westbound,70163,Woodland - Outbound,57
Green Line,Westbound,70161,Riverside - Outbound,58
Green Line,Westbound,70239,Prudential - Outbound,59
Green Line,Westbound,70241,Symphony - Outbound,60
Green Line,Westbound,70243,Northeastern - Outbound,61
Green Line,Westbound,70245,Museum of Fine Arts - Outbound,62
Green Line,Westbound,70247,Longwood Medical Area - Outbound,63
Green Line,Westbound,70249,Brigham Circle - Outbound,64
Green Line,Westbound,70251,Fenwood Road - Outbound,65
Green Line,Westbound,70253,Mission Park - Outbound,66
Green Line,Westbound,70255,Riverway - Outbound,67
Green Line,Westbound,70257,Back of the Hill - Outbound,68
Green Line,Westbound,70260,Heath Street,69
Green Line,Eastbound,70260,Heath Street,1
Green Line,Eastbound,70258,Back of the Hill - Inbound,2
Green Line,Eastbound,70256,Riverway - Inbound,3
Green Line,Eastbound,70254,Mission Park - Inbound,4
Green Line,Eastbound,70252,Fenwood Road - Inbound,5
Green Line,Eastbound,70250,Brigham Circle - Inbound,6
Green Line,Eastbound,70248,Longwood Medical Area - Inbound,7
Green Line,Eastbound,70246,Museum of Fine Arts - Inbound,8
Green Line,Eastbound,70244,Northeastern - Inbound,9
Green Line,Eastbound,70242,Symphony - Inbound,10
Green Line,Eastbound,70240,Prudential - Inbound,11
Green Line,Eastbound,70160,Riverside - Inbound,12
Green Line,Eastbound,70162,Woodland - Inbound,13
Green Line,Eastbound,70164,Waban - Inbound,14
Green Line,Eastbound,70166,Eliot - Inbound,15
Green Line,Eastbound,70168,Newton Highlands - Inbound,16
Green Line,Eastbound,70170,Newton Centre - Inbound,17
Green Line,Eastbound,70172,Chestnut Hill - Inbound,18
Green Line,Eastbound,70174,Reservoir - Inbound,19
Green Line,Eastbound,70176,Beaconsfield - Inbound,20
Green Line,Eastbound,70178,Brookline Hills - Inbound,21
Green Line,Eastbound,70180,Brookline Village - Inbound,22
Green Line,Eastbound,70182,Longwood - Inbound,23
Green Line,Eastbound,70186,Fenway - Inbound,24
Green Line,Eastbound,70238,Cleveland Circle - Inbound,25
Green Line,Eastbound,70236,Englewood Avenue - Inbound,26
Green Line,Eastbound,70234,Dean Road - Inbound,27
Green Line,Eastbound,70232,Tappan Street - Inbound,28
Green Line,Eastbound,70230,Washington Square - Inbound,29
Green Line,Eastbound,70228,Fairbanks Street - Inbound,30
Green Line,Eastbound,70226,Brandon Hall - Inbound,31
Green Line,Eastbound,70224,Summit Avenue - Inbound,32
Green Line,Eastbound,70220,Coolidge Corner - Inbound,33
Green Line,Eastbound,70218,Saint Paul Street - Inbound,34
Green Line,Eastbound,70216,Kent Street - Inbound,35
Green Line,Eastbound,70214,Hawes Street - Inbound,36
Green Line,Eastbound,70212,Saint Mary Street - Inbound,37
Green Line,Eastbound,70106,Boston College - Inbound,38
Green Line,Eastbound,70110,South Street - Inbound,39
Green Line,Eastbound,70112,Chestnut Hill Avenue - Inbound,40
Green Line,Eastbound,70114,Chiswick Road - Inbound,41
Green Line,Eastbound,70116,Sutherland Road - Inbound,42
Green Line,Eastbound,70120,Washington Street - Inbound,43
Green Line,Eastbound,70124,Warren Street - Inbound,44
Green Line,Eastbound,70126,Allston Street - Inbound,45
Green Line,Eastbound,70128,Griggs Street - Inbound,46
Green Line,Eastbound,70130,Harvard Avenue - Inbound,47
Green Line,Eastbound,70134,Packards Corner - Inbound,48
Green Line,Eastbound,70136,Babcock Street - Inbound,49
Green Line,Eastbound,70138,Pleasant Street - Inbound,50
Green Line,Eastbound,70140,Saint Paul Street - Inbound,51
Green Line,Eastbound,70142,Boston Univ West - Inbound,52
Green Line,Eastbound,70144,Boston Univ Central - Inbound,53
Green Line,Eastbound,70146,Boston Univ East - Inbound,54
Green Line,Eastbound,70148,Blandford Street - Inbound,55
Green Line,Eastbound,70150,Kenmore - Inbound,56
Green Line,Eastbound,70152,Hynes - Inbound,57
Green Line,Eastbound,70154,Copley - Inbound,58
Green Line,Eastbound,70156,Arlington - Inbound,59
Green Line,Eastbound,70158,Boylston - Inbound,60
Green Line,Eastbound,70200,Park Street - Green Line Eastbound,61
Green Line,Eastbound,70201,Government Center - Green Line Eastbound,62
Green Line,Eastbound,70203,Haymarket - Green Line Outbound,63
Green Line,Eastbound,70205,North Station - Green Line Outbound,64
Green Line,Eastbound,70207,Science Park - Outbound,65
Green Line,Eastbound,70209,Lechmere - Outbound,66
