"stop_id","stop_code","stop_name","stop_desc","stop_lat","stop_lon","zone_id","stop_url","location_type","parent_station"
"1",,"Washington St opp Ruggles St",,"42.330971","-71.082748",,,0,
"10",,"Theo Glynn Way @ Newmarket Sq",,"42.330883","-71.06842",,,0,
"100",,"Massachusetts Ave @ Front St",,"42.361904","-71.097649",,,0,
"10000",,"Tremont St opp Winter St",,"42.356174","-71.062431",,,0,
"10003",,"Albany St opp Randall St",,"42.331604","-71.076233",,,0,
"10004",,"Albany St opp Northampton St",,"42.332752","-71.074402",,,0,
"10005",,"Albany St opp E Concord St",,"42.33503","-71.071281",,,0,
"10006",,"Albany St opp E Newton St",,"42.335827","-71.070137",,,0,
"10007",,"540 Albany St opp Wareham St",,"42.338387","-71.066551",,,0,
"10008",,"Albany St opp Randolph St",,"42.340424","-71.063774",,,0,
"10009",,"High St @ Duck Lane",,"42.214886","-70.915894",,,0,
"1001",,"Newton St @ Arlington Rd",,"42.307674","-71.169518",,,0,
"10010",,"Southampton St @ Newmarket St",,"42.330959","-71.064621",,,0,
"10011",,"Albany St @ Randolph St",,"42.340485","-71.063873",,,0,
"10012",,"Albany St @ Wareham St",,"42.338375","-71.066666",,,0,
"10013",,"Albany St @  E Dedham St",,"42.33757","-71.067871",,,0,
"10014",,"Albany St opp Boston Medical",,"42.334354","-71.07222",,,0,
"10015",,"Harrison Ave @ E Newton St",,"42.337414","-71.072159",,,0,
"10016",,"TradeCenter 128",,"42.499176","-71.161682",,,0,
"1003",,"Firehouse @ Long Island",,"42.324341","-70.963371",,,0,
"10031",,"E 1st St @ P St",,"42.338322","-71.02713",,,0,
"10032",,"E 1st St opp O St",,"42.338287","-71.029205",,,0,
"10033",,"E 1st St @ O St",,"42.338188","-71.029442",,,0,
"10099",,"Albany St @ Northampton St",,"42.333035","-71.074226",,,0,
"101",,"Massachusetts Ave @ Main St",,"42.36367","-71.100594",,,0,
"10100",,"Albany St @ Melnea Cass Blvd",,"42.331314","-71.076889",,,0,
"10101",,"Melnea Cass Blvd @ Harrison Ave",,"42.332043","-71.079239",,,0,
"10134",,"Massachusetts Ave @ NStar",,"42.324875","-71.065376",,,0,
"102",,"Massachusetts Ave @ Prospect St",,"42.365643","-71.103905",,,0,
"1026",,"Chestnut Hill Ave @ Veronica Smith Ctr",,"42.347706","-71.153923",,,0,
"1027",,"Chestnut Hill Ave @ Englewood Ave",,"42.337143","-71.152069",,,0,
"1028",,"Chestnut Hill Ave @ Commonwealth Ave",,"42.338001","-71.153061",,,0,
"1029",,"Chestnut Hill Ave @ Commonwealth Ave",,"42.338326","-71.15345",,,0,
"1030",,"Chestnut Hill Ave @ Strathmore Rd",,"42.340298","-71.155258",,,0,
"1031",,"Chestnut Hill Ave @ Chiswick Rd",,"42.34111","-71.154739",,,0,
"1032",,"Chestnut Hill Ave opp Wiltshire Rd",,"42.343079","-71.153465",,,0,
"1033",,"Chestnut Hill Ave @ Wallingford Rd",,"42.34462","-71.153221",,,0,
"1034",,"Chestnut Hill Ave @ Union St",,"42.346138","-71.152992",,,0,
"1035",,"Market St @ Washington St",,"42.349274","-71.153305",,,0,
"1036",,"Market St @ Sparhawk St",,"42.35154","-71.151917",,,0,
"1037",,"Market St @ Morrow Rd",,"42.353786","-71.150528",,,0,
"1038",,"Market St @ Cypress Rd",,"42.354568","-71.150024",,,0,
"1039",,"Market St @ N Beacon St",,"42.356049","-71.149078",,,0,
"104",,"Massachusetts Ave @ Bigelow St",,"42.366997","-71.106178",,,0,
"1040",,"Market St @ Guest St",,"42.357327","-71.148285",,,0,
"1041",,"Market St @ Centola St",,"42.359352","-71.147026",,,0,
"10413",,"Columbus Ave @ Weld  Ave",,"42.315037","-71.097748",,,0,
"10417",,"American Legion Hwy @ Blue Hill Ave",,"42.298241","-71.087204",,,0,
"10418",,"American Legion Hwy opp Franklin Hill Ave",,"42.295841","-71.092506",,,0,
"10419",,"American Legion Hwy @ Canterbury St",,"42.285736","-71.10997",,,0,
"1042",,"Market St @ Lothrop St",,"42.360287","-71.146469",,,0,
"10420",,"opp 150 American Legion Hwy",,"42.294762","-71.0933",,,0,
"10421",,"American Legion Hwy @ Walk Hill St",,"42.287701","-71.106949",,,0,
"10422",,"American Legion Hwy opp Shopping Center",,"42.284779","-71.111694",,,0,
"10423",,"American Legion Hwy @ Stella Rd",,"42.280766","-71.116249",,,0,
"10424",,"American Legion Hwy @ Cummins Hwy",,"42.278488","-71.116638",,,0,
"10425",,"American Legion Hwy opp Shopping Mall",,"42.274349","-71.116707",,,0,
"1043",,"Western Ave @ Mackin St",,"42.361572","-71.145096",,,0,
"1044",,"Western Ave @ Richardson St",,"42.361912","-71.14328",,,0,
"1045",,"450 Western Ave",,"42.362179","-71.141785",,,0,
"1046",,"Western Ave @ Litchfield St",,"42.362545","-71.139786",,,0,
"1047",,"Western Ave @ Star Market",,"42.36274","-71.13842",,,0,
"1048",,"382 Western Ave",,"42.362846","-71.137558",,,0,
"1049",,"Western Ave @ Everett St",,"42.363106","-71.135445",,,0,
"105",,"Massachusetts Ave @ Clinton St",,"42.367432","-71.106842",,,0,
"1050",,"Western Ave @ N Harvard st",,"42.363171","-71.129539",,,0,
"1051",,"156 Western Ave",,"42.363342","-71.127388",,,0,
"1052",,"130 Western Ave - WGBH TV 2",,"42.363541","-71.125038",,,0,
"10522",,"Circuit Dr @ Glen Ln",,"42.302158","-71.087418",,,0,
"1053",,"60 Western Ave",,"42.363735","-71.122665",,,0,
"10540",,"Morton St @ Evans St",,"42.280899","-71.084656",,,0,
"1055",,"River St opp Blackstone St",,"42.361927","-71.11438",,,0,
"1056",,"River St @ Fairmount St",,"42.362579","-71.112389",,,0,
"10569",,"2165 Dorchester Ave",,"42.276299","-71.067024",,,0,
"1058",,"River St @ Pleasant St",,"42.363865","-71.108582",,,0,
"10582",,"River St opp Fremont St",,"42.269997","-71.089867",,,0,
"10590",,"Massachusetts Ave @ Washington St",,"42.336487","-71.076813",,,0,
"106",,"Massachusetts Ave @ Hancock St",,"42.368404","-71.108612",,,0,
"1060",,"Magazine St @ Green St",,"42.364914","-71.104614",,,0,
"10603",,"Washington St @ Durnell Ave",,"42.282299","-71.132668",,,0,
"1061",,"Western Ave @ Kinnaird St",,"42.364964","-71.108902",,,0,
"10612",,"Washington St opp W Boundary Rd",,"42.268051","-71.149849",,,0,
"10618",,"Washington St @ Sumner St",,"42.256413","-71.163231",,,0,
"1062",,"Western Ave @ Howard St",,"42.364811","-71.110649",,,0,
"10625",,"Washington St opp Heron St",,"42.268845","-71.148552",,,0,
"1063",,"Western Ave @ Dodge St",,"42.364689","-71.112175",,,0,
"10633",,"Washington St @ Rosecliff St",,"42.282101","-71.132729",,,0,
"1064",,"Western Ave @ Putnam Ave",,"42.364506","-71.114113",,,0,
"10642",,"Forest Hills Station Upper Busway",,"42.300911","-71.114601",,,0,"place-forhl"
"1067",,"Western Ave opp Genzyme",,"42.363857","-71.122307",,,0,
"1068",,"125 Western Ave - WGBH TV 2",,"42.363667","-71.124626",,,0,
"1069",,"Western Ave @ Stadium Way",,"42.36343","-71.127487",,,0,
"107",,"Massachusetts Ave @ Dana St",,"42.369274","-71.110771",,,0,
"1070",,"Western Ave @ N Harvard St",,"42.363297","-71.129143",,,0,
"1071",,"Western Ave opp Riverdale St",,"42.363266","-71.13208",,,0,
"1072",,"Western Ave @ Everett St",,"42.363194","-71.135544",,,0,
"1074",,"367 Western Ave opp Brighton Mills Mall",,"42.36282","-71.138519",,,0,
"1075",,"Western Ave opp Litchfield St",,"42.362675","-71.139572",,,0,
"1076",,"445 Western Ave",,"42.362354","-71.141357",,,0,
"10768",,"Centre St @ Grove St",,"42.268776","-71.16185",,,0,
"10769",,"Centre St @ Grove St",,"42.268871","-71.161789",,,0,
"1077",,"Western Ave opp Richardson St",,"42.361984","-71.143387",,,0,
"10777",,"Spring St @ Cass St",,"42.277184","-71.164192",,,0,
"1078",,"Western Ave @ Soldiers Field Rd",,"42.361652","-71.145203",,,0,
"1079",,"Market St @ Birmingham Pkwy",,"42.35709","-71.148575",,,0,
"108",,"Massachusetts Ave @ Trowbridge St",,"42.370285","-71.112999",,,0,
"1080",,"Market St @ N Beacon St",,"42.356251","-71.149086",,,0,
"1081",,"Market St opp Faneuil St",,"42.3549","-71.149963",,,0,
"1082",,"Market St. opp. Mapleton St.",,"42.352654","-71.151367",,,0,
"10820",,"Veterans Hospital West Roxbury",,"42.273422","-71.173065",,,0,
"10821",,"Charles Park Rd @ VFW Pkwy",,"42.27684","-71.172523",,,0,
"1083",,"Market St @ Arlington St",,"42.351524","-71.152061",,,0,
"10830",,"5 Charles Park Rd",,"42.276943","-71.172562",,,0,
"10832",,"Dedham Mall",,"42.254715","-71.166954",,,0,
"10833",,"Dedham Mall @ Stop & Shop",,"42.255661","-71.16732",,,0,
"1084",,"Market St @ Washington St",,"42.349236","-71.153442",,,0,
"1085",,"Chestnut Hill Ave @ Academy Hill Rd",,"42.347103","-71.153748",,,0,
"1086",,"Chestnut Hill Ave @ Jackson Ave",,"42.344753","-71.15329",,,0,
"1087",,"Chestnut Hill Ave @ Wiltshire Rd",,"42.343063","-71.15361",,,0,
"1088",,"Chestnut Hill Ave @ Embassy Rd",,"42.34145","-71.154686",,,0,
"1089",,"Chestnut Hill Ave @ South St",,"42.3405","-71.155289",,,0,
"10891",,"Chestnut Hill Ave @ Reservoir Towers",,"42.338787","-71.154121",,,0,
"109",,"Massachusetts Ave @ Quincy St",,"42.372208","-71.115463",,,0,
"1090",,"Chestnut Hill Ave @ Commonwealth Ave",,"42.338345","-71.153702",,,0,
"1092",,"Chestnut Hill Ave @ Beacon St",,"42.336235","-71.151108",,,0,
"10923",,"Cummins Hwy @ Wood Ave",,"42.274212","-71.109131",,,0,
"1093",,"Faneuil St @ Brackett St",,"42.351898","-71.165199",,,0,
"1094",,"Faneuil St @ Fairbanks St",,"42.352379","-71.16301",,,0,
"1095",,"Faneuil St @ Oakland St",,"42.352615","-71.160683",,,0,
"1096",,"Faneuil St opp Bothwell Rd",,"42.353046","-71.159546",,,0,
"1097",,"Faneuil St @ Hobart St",,"42.353985","-71.158134",,,0,
"1098",,"Hobart St @ Falkland St",,"42.35487","-71.158562",,,0,
"1099",,"Hobart St @ Ranelegh Rd",,"42.355282","-71.160896",,,0,
"11",,"Melnea Cass Blvd @ Kerr Way",,"42.334778","-71.084457",,,0,
"110",,"Massachusetts Ave @ Holyoke St - Holyoke Gate",,"42.373272","-71.118126",,,0,
"1100",,"Hobart St @ Brooks St",,"42.355553","-71.16243",,,0,
"1101",,"Brooks St @ Olivia Rd",,"42.356232","-71.162292",,,0,
"1102",,"N Beacon St @ Parsons St",,"42.358311","-71.157997",,,0,
"1103",,"N Beacon St @ Goodenough St",,"42.357365","-71.153793",,,0,
"1104",,"N Beacon St opp Vineland St",,"42.357014","-71.152802",,,0,
"1107",,"N Beacon St @ Etna St",,"42.355328","-71.146248",,,0,
"11070",,"Life St @ Guest St",,"42.356964","-71.145676",,,0,
"11071",,"Arthur St @ Guest St - Stop & Shop",,"42.3568","-71.140549",,,0,
"1108",,"Chestnut Hill Ave opp Veronica Smith Ctr",,"42.347633","-71.15403",,,0,
"11081",,"Allston Tolls (not a service stop)",,"42.357548","-71.121498",,,0,
"11082",,"Allston Tolls (not a service stop)",,"42.356846","-71.12059",,,0,
"1109",,"N Beacon St @ Saunders St",,"42.35413","-71.14151",,,0,
"111",,"Mt Vernon St @ South Point Dr",,"42.317196","-71.040237",,,0,
"1110",,"N Beacon St @ Cambridge St",,"42.353596","-71.138168",,,0,
"1111",,"Cambridge St @ Craftsman St",,"42.353943","-71.13636",,,0,
"11111",,"UMass Boston Busway",,"42.315453","-71.040787",,,0,
"1112",,"Cambridge St @ Harvard Ave",,"42.355381","-71.132935",,,0,
"1113",,"Cambridge St @ Linden St",,"42.355961","-71.131454",,,0,
"11131",,"Centre St @ Roseway",,"42.319008","-71.111931",,,0,
"11134",,"Paul Gore St @ St Peter St",,"42.319267","-71.107582",,,0,
"1114",,"Cambridge St @ N Harvard St",,"42.357773","-71.126503",,,0,
"11148",,"Malcolm X Blvd @ Madison Park HS",,"42.331154","-71.090057",,,0,
"11149",,"Malcolm X Blvd @ O'Bryant HS",,"42.330715","-71.088348",,,0,
"1115",,"Cambridge St @ Seattle St",,"42.358742","-71.124016",,,0,
"11158",," Harrison Ave  @ E Brookline St",,"42.338406","-71.070915",,,0,
"1116",,"Cambridge St @ Mass Pike Exit",,"42.360653","-71.118546",,,0,
"11164",,"Centre St @ Burroughs St",,"42.311481","-71.114502",,,0,
"1117",,"Putnam Ave @ Allston St",,"42.361725","-71.113533",,,0,
"1118",,"Magazine St @ Putnam Ave",,"42.359211","-71.110886",,,0,
"11187",,"Washington St @ School St",,"42.314709","-71.099457",,,0,
"1119",,"Magazine St @ Erie St",,"42.360992","-71.10891",,,0,
"1120",,"Magazine St @ McTernan Way",,"42.3615","-71.108368",,,0,
"11200",,"Canal St @ Causeway St",,"42.365353","-71.061073",,,0,
"1121",,"Magazine St @ Perry St",,"42.362358","-71.107445",,,0,
"11218",,"Congress St @ A St",,"42.350449","-71.048492",,,0,
"11219",,"A St. @ Necco Ct.",,"42.348862","-71.049629",,,0,
"1122",,"Magazine St @ Auburn St",,"42.36388","-71.105728",,,0,
"11228",,"Tremont St @ Lenox St",,"42.337795","-71.083038",,,0,
"1123",,"Green St @ Magazine St",,"42.36499","-71.104454",,,0,
"11237",,"412 Tremont St opp Appleton St",,"42.346508","-71.069084",,,0,
"11241",,"South Bay Mall @ Target",,"42.330456","-71.063347",,,0,
"11242",,"South Bay Mall @ Office Max",,"42.32793","-71.063416",,,0,
"11245",,"Tremont St @ Berkeley St",,"42.345478","-71.069801",,,0,
"11257",,"Malcolm X Blvd @ King St",,"42.331223","-71.092697",,,0,
"11259",,"Malcolm X Blvd @ Shawmut Ave",,"42.329502","-71.086197",,,0,
"1127",,"Dudley St @ Shirley St",,"42.323093","-71.073212",,,0,
"1128",,"South St @ Centre St",,"42.309761","-71.115349",,,0,
"11280",,"Dudley St opp Shirley St",,"42.322987","-71.073265",,,0,
"1129",,"Centre St @ Seaverns Ave",,"42.31221","-71.114143",,,0,
"113",,"Causeway St @ Canal St",,"42.365292","-71.061295",,,0,
"1130",,"Centre St @ Lester Pl",,"42.313801","-71.114044",,,0,
"11302",,"Harvard St @ Verndale St",,"42.348579","-71.129623",,,0,
"1131",,"Centre St @ Parley Ave",,"42.3153","-71.114029",,,0,
"11317",,"Huntington Ave @ Tremont St - Brighams Circle",,"42.334103","-71.104424",,,0,
"11319",,"W Second St opp W Third St",,"42.34306","-71.055038",,,0,
"1132",,"Centre St @ Robinwood Ave",,"42.31699","-71.113358",,,0,
"11320",,"Tremont St @ Carmel St",,"42.332474","-71.100151",,,0,
"11323",,"Malcolm X Blvd opp O'Bryant HS",,"42.330605","-71.088326",,,0,
"1134",,"Centre St @ Paul Gore St",,"42.320869","-71.11055",,,0,
"1135",,"Centre St @ Sheridan St",,"42.322178","-71.109039",,,0,
"1136",,"Centre St @ Wyman St",,"42.322472","-71.106964",,,0,
"11366",,"Pearl St @ Washington St",,"42.331947","-71.116287",,,0,
"1137",,"Centre St @ Mozart St",,"42.322697","-71.10466",,,0,
"1138",,"Centre St @ Estrella St",,"42.322868","-71.102974",,,0,
"11384",,"Dartmouth St @ Back Bay Sta",,"42.347359","-71.07592",,,0,
"11388",,"Huntington Ave @ Belvidere St",,"42.345356","-71.082047",,,0,
"1139",,"Mt Vernon St opp Harbor Point Blvd",,"42.318462","-71.044235",,,0,
"11390",," Dalton St @ Boylston St",,"42.347794","-71.085472",,,0,
"11391",,"Boylston St @ Massachusetts Ave",,"42.347401","-71.087494",,,0,
"114",,"Causeway St. @ North Station",,"42.365498","-71.061371",,,0,
"1140",,"Centre St @ Highland St",,"42.324806","-71.097572",,,0,
"1141",,"Centre St @ Marcella St",,"42.326103","-71.096512",,,0,
"11413",,"Columbus Ave @ Walnut Ave",,"42.313297","-71.095322",,,0,
"11419",,"A St @ Mt Washington Ave",,"42.346355","-71.051613",,,0,
"1142",,"Centre St @ Cedar St",,"42.327793","-71.09552",,,0,
"1143",,"Centre St @ Linwood St",,"42.328609","-71.094978",,,0,
"1144",,"Centre St @ Highland Ave",,"42.32967","-71.093033",,,0,
"1145",,"42A John Eliot Sq",,"42.329975","-71.091545",,,0,
"1146",,"42 Dudley St",,"42.329411","-71.089127",,,0,
"1147",,"Dudley St @ Shawmut Ave",,"42.328983","-71.086205",,,0,
"11478",,"58 Hancock St opp Glendale St",,"42.313496","-71.065094",,,0,
"1148",,"Malcolm X Blvd @ Shawmut Ave",,"42.329697","-71.086128",,,0,
"11481",,"Herald St @ Harrison Ave",,"42.346313","-71.063362",,,0,
"11482",,"Dudley St @ Clifton St",,"42.318798","-71.069138",,,0,
"1149",,"205 Roxbury St",,"42.330109","-71.091339",,,0,
"115",,"Northern Ave @ Fed Court House",,"42.353432","-71.046814",,,0,
"1150",,"Centre St @ Gardner St",,"42.329399","-71.094101",,,0,
"11501",,"Dudley St @ Monadnock St",,"42.318001","-71.067413",,,0,
"1151",,"Centre St @ Cedar St",,"42.32756","-71.09581",,,0,
"11511",,"Sleeper St @ Seaport Blvd",,"42.353825","-71.048576",,,0,
"11512",,"Bowdoin opp Mt Ida",,"42.307232","-71.066002",,,0,
"11519",,"A St opp Wormwood St",,"42.346977","-71.051163",,,0,
"1152",,"Centre St @ New Heath St",,"42.326065","-71.096664",,,0,
"11520",,"Park dr @ Fenway Sta",,"42.343918","-71.103279",,,0,
"11521",,"131 Morton St",,"42.300148","-71.106422",,,0,
"1153",,"Centre St @ Columbus Ave",,"42.324932","-71.098106",,,0,
"11531",,"Jackson Sq Station @ Orange Line",,"42.323059","-71.100197",,,0,
"11532",,"W Broadway @ Linsky Barry Ct",,"42.339687","-71.052299",,,0,
"1154",,"Heath St @ Bromley St",,"42.325378","-71.099579",,,0,
"11545",,"Lee St @ Boylston St",,"42.325821","-71.140472",,,0,
"1155",,"Centre St @ Bickford St",,"42.322964","-71.102272",,,0,
"1156",,"Centre St @ Sunnyside St",,"42.322689","-71.105713",,,0,
"1158",,"Centre St @ Creighton St",,"42.32238","-71.108658",,,0,
"11587",,"Circuit Dr @ Glen Ln",,"42.302345","-71.087303",,,0,
"1159",,"Centre St @ Barbara St",,"42.321106","-71.110542",,,0,
"11592",,"Ruggles St @ Cabot St",,"42.333878","-71.087173",,,0,
"11593",,"Ruggles St opp Kerr Way",,"42.333199","-71.086014",,,0,
"1160",,"S Huntington Ave @ Moraine St",,"42.319633","-71.111725",,,0,
"11609",,"Centre St @ S Huntington Ave",,"42.320099","-71.111336",,,0,
"1161",,"Centre St @ Lochstead Ave",,"42.317379","-71.113228",,,0,
"11613",,"W Boundary Rd @ Washington St",,"42.267445","-71.149986",,,0,
"1162",,"Centre St @ Lakeville Rd",,"42.31588","-71.114128",,,0,
"1164",,"Centre St @ Myrtle St",,"42.31332","-71.114159",,,0,
"1165",,"Washington St @ W Walnut Pk",,"42.316322","-71.097702",,,0,
"1166",,"Washington St @ Cobden St",,"42.317593","-71.096451",,,0,
"1167",,"Washington St opp Dimock St",,"42.318913","-71.095139",,,0,
"11673",,"209 Cambridge St",,"42.453011","-71.157951",,,0,
"1168",,"Washington St @ Townsend St",,"42.319973","-71.094063",,,0,
"11689",,"Mall Rd opp NE Ececutive Pk",,"42.48592","-71.211731",,,0,
"1169",,"Washington St @ Brinton St",,"42.320843","-71.092972",,,0,
"11694",,"S Bedford St @ Wayside Rd",,"42.484211","-71.194916",,,0,
"117",,"Congress St @ Haymarket  Sta",,"42.362236","-71.058052",,,0,
"1170",,"Washington St @ ML King Blvd",,"42.321762","-71.091751",,,0,
"11708",,"Blue Hill Ave opp Westview St",,"42.291332","-71.089317",,,0,
"11712",,"Blue Hill Ave @ Morton St",,"42.284145","-71.091713",,,0,
"11716",,"Blue Hill Ave @ Tennis Rd",,"42.275333","-71.093758",,,0,
"11719",,"Blue Hill Ave opp Babson St",,"42.270222","-71.093887",,,0,
"1172",,"Washington St @ Dale St",,"42.323364","-71.089561",,,0,
"1173",,"Washington St opp Cedar St",,"42.324116","-71.088806",,,0,
"11735",,"Ames St @ Franklin Field Housing",,"42.289776","-71.083847",,,0,
"11736",,"Ames St @ Westview St",,"42.290581","-71.086517",,,0,
"1174",,"Washington St @ Circuit Terr",,"42.32584","-71.087769",,,0,
"1175",,"Washington St @ St James St",,"42.32729","-71.087151",,,0,
"1176",,"Washington St @ Dudley St",,"42.328804","-71.085167",,,0,
"11771",,"Vassar St @ Mass Ave",,"42.360245","-71.09481",,,0,
"1178",,"Washington St @ Bartlett St",,"42.327652","-71.08712",,,0,
"11780",,"Ave Louis Pasteur @ Longwood Ave",,"42.338455","-71.102234",,,0,
"11781",,"Ave Louis Pasteur @ The Fenway",,"42.340248","-71.100838",,,0,
"1179",,"Washington St @ Guild St",,"42.32605","-71.087807",,,0,
"11792",,"Harrison Ave @ Melnea Cass Blvd",,"42.332146","-71.07933",,,0,
"11799",,"Ave Louis Pasteur @ The Fenway",,"42.340286","-71.100975",,,0,
"1180",,"Washington St @ Cedar St",,"42.324322","-71.088776",,,0,
"11802",,"Ave Louis Pasteur @ Longwood Ave",,"42.338501","-71.102341",,,0,
"11803",,"Longwood Ave @ Binney St",,"42.338211","-71.105934",,,0,
"11809",,"Mountfort St @ Carlton St",,"42.348751","-71.108742",,,0,
"1181",,"Washington St @ Oakland St",,"42.323475","-71.0896",,,0,
"1182",,"Washington St @ Valentine St",,"42.321785","-71.091896",,,0,
"1183",,"Washington St @ Marcella St",,"42.320866","-71.093124",,,0,
"11835",,"Chestnut Hill Ave opp Buckminster Rd",,"42.332329","-71.14679",,,0,
"11836",,"145 Grove St opp Bellingham Rd",,"42.304482","-71.150101",,,0,
"11837",,"Grove St @ South St",,"42.30265","-71.15226",,,0,
"11839",,"Corey St @ LaGrange St",,"42.3004","-71.169861",,,0,
"1184",,"Washington St opp Townsend St",,"42.320168","-71.094002",,,0,
"11845",,"Chestnut Hill Ave @ Ackers Ave",,"42.329987","-71.146011",,,0,
"1185",,"Washington St @ Dimock St",,"42.31892","-71.095291",,,0,
"11853",,"Chestnut St opp Oak St",,"42.277039","-71.237373",,,0,
"1186",,"Washington St @ Bragdon St",,"42.317429","-71.096771",,,0,
"11860",,"Robert St @ Belgrade Ave",,"42.286762","-71.131088",,,0,
"11868",,"5 Walter St opp Hewlett St",,"42.289165","-71.133827",,,0,
"1187",,"Washington St @ Columbus Ave",,"42.316315","-71.097855",,,0,
"1188",,"1990 Columbus Ave",,"42.315407","-71.097816",,,0,
"11891",,"Pearl St @ Congress St",,"42.357624","-71.056313",,,0,
"1190",,"Cambridge St @ Seattle St",,"42.358906","-71.123856",,,0,
"1191",,"Cambridge St @ N Harvard St",,"42.357952","-71.126701",,,0,
"11917",,"Chestnut Hill Ave @ Buckminster Rd",,"42.332428","-71.146721",,,0,
"1192",,"Cambridge St opp Linden St",,"42.356205","-71.131363",,,0,
"1193",,"Cambridge St @ Franklin St",,"42.355606","-71.132675",,,0,
"11939",,"Centre St @ Eliot St",,"42.309666","-71.115761",,,0,
"1195",,"Cambridge St @ Hano St",,"42.354023","-71.136436",,,0,
"1196",,"N Beacon St @ Everett St",,"42.353863","-71.138893",,,0,
"1197",,"N Beacon St opp Saunders St",,"42.354374","-71.141739",,,0,
"11971",,"Arthur St @ Guest St - Stop & Shop",,"42.356884","-71.140648",,,0,
"11972",,"Guest St @ Life St",,"42.35709","-71.145584",,,0,
"1199",,"N Beacon St @ Life St",,"42.355522","-71.146271",,,0,
"120",,"Rivermoor St @ Industrial Park",,"42.278461","-71.177803",,,0,
"1200",,"N Beacon St @ Market St",,"42.356201","-71.148926",,,0,
"1201",,"239 N Beacon",,"42.356472","-71.150002",,,0,
"1202",,"N Beacon St @ Vineland St",,"42.357201","-71.152794",,,0,
"1203",,"N Beacon St @ Birmingham Pkwy",,"42.358456","-71.15715",,,0,
"1204",,"Birmingham Pkwy @ Soldiers Field Rd",,"42.358974","-71.158409",,,0,
"1205",,"Brooks St @ Newton St",,"42.356056","-71.162476",,,0,
"1206",,"Hobart St @ Brooks St",,"42.355446","-71.162376",,,0,
"1207",,"Hobart St opp Ranelegh Rd",,"42.355179","-71.160851",,,0,
"1208",,"Hobart St @ Falkland St",,"42.354763","-71.158516",,,0,
"12081",,"Faneuil St @ Donnybrook Rd",,"42.353905","-71.158539",,,0,
"121",,"Columbia Rd @ JFK/UMASS Station",,"42.320686","-71.051163",,,0,
"1210",,"Faneuil St opp Garfield School",,"42.352688","-71.160988",,,0,
"1211",,"Faneuil St @ Brooks St",,"42.35247","-71.163063",,,0,
"1212",,"Faneuil St @ Brackett St",,"42.352055","-71.165024",,,0,
"1213",,"Faneuil  @ Bigelow",,"42.351269","-71.16748",,,0,
"1214",,"Faneuil St @ Oak Square",,"42.351208","-71.167351",,,0,
"12144",,"Huron Ave opp Park Ave",,"42.37899","-71.148529",,,0,
"12145",,"Huron Ave opp VFW Post 8818",,"42.380173","-71.15258",,,0,
"12146",,"Opp 700 Huron Ave",,"42.381275","-71.154594",,,0,
"12147",,"700 Huron Ave",,"42.381195","-71.154671",,,0,
"12148",,"Huron Ave @ VFW Post 8818",,"42.380062","-71.15258",,,0,
"12149",,"Huron Ave @ Park Ave",,"42.378887","-71.148476",,,0,
"1215",,"Columbus Ave @ Bray St",,"42.317257","-71.098114",,,0,
"1216",,"Columbus Ave @ Dimock St",,"42.319466","-71.098152",,,0,
"1217",,"Columbus Ave @ Academy Rd",,"42.320522","-71.098167",,,0,
"1218",,"Columbus Ave @ Ritchie St",,"42.322323","-71.098259",,,0,
"1219",,"Columbus Ave @ Centre St",,"42.325027","-71.098076",,,0,
"122",,"Columbia Rd @ Dorchester Ave",,"42.320675","-71.056976",,,0,
"1221",,"Columbus Ave @ Cedar St",,"42.328026","-71.096909",,,0,
"1222",,"Columbus Ave @ Malcolm X Blvd",,"42.331203","-71.094467",,,0,
"1224",,"Tremont St opp Prentiss St",,"42.332718","-71.092339",,,0,
"1226",,"Tremont St @ Ruggles St",,"42.334778","-71.088524",,,0,
"1227",,"Tremont St @ Melnea Cass Blvd",,"42.335739","-71.086845",,,0,
"1228",,"Tremont St @ Hammond St",,"42.337238","-71.084023",,,0,
"12295",,"Massachusetts Ave @ North Cambridge Carhouse Gate",,"42.396671","-71.129189",,,0,
"123",,"Columbia Rd opp Pond St",,"42.320061","-71.059998",,,0,
"1230",,"Tremont St @ Northampton St",,"42.338757","-71.081161",,,0,
"12301",,"Massachusetts Ave @ Upland Rd",,"42.388321","-71.119637",,,0,
"1231",,"Tremont St @ Massachusetts Ave",,"42.339306","-71.080086",,,0,
"1232",,"Tremont St @ W Concord St",,"42.34042","-71.078156",,,0,
"12323",,"Park Ave @ Oakland Ave",,"42.417816","-71.180679",,,0,
"1233",,"Tremont St @ W Newton St",,"42.341248","-71.076653",,,0,
"1234",,"Tremont St @ W Brookline St",,"42.3419","-71.075409",,,0,
"1235",,"Tremont St @ W Dedham St",,"42.342678","-71.073944",,,0,
"12352",,"Lake St @ Pleasant St",,"42.405262","-71.164124",,,0,
"1236",,"Tremont St @ Waltham St",,"42.343887","-71.071648",,,0,
"12360",,"Park Ave @ Park Circle",,"42.415325","-71.180412",,,0,
"1237",,"Tremont St @ E Berkeley St",,"42.345158","-71.06987",,,0,
"12376",,"Winthrop St @ Orchard St",,"42.413071","-71.120842",,,0,
"1239",,"Tremont St @ Marginal St",,"42.348194","-71.067596",,,0,
"124",,"Massachusetts Ave @ Columbia Rd",,"42.320637","-71.061569",,,0,
"1240",,"Charles St S @ Stuart St",,"42.350632","-71.066719",,,0,
"1241",,"Charles St S @ Park Plaza",,"42.351761","-71.067101",,,0,
"1242",,"Tremont St @ Charles St S",,"42.348789","-71.066483",,,0,
"1243",,"Tremont St @ Jefferson St",,"42.348644","-71.06694",,,0,
"12432",,"West Service Rd @ Spring St",,"42.408203","-71.169769",,,0,
"1246",,"Tremont St @ Union Pk",,"42.343685","-71.072266",,,0,
"12465",,"Wadsworth Rd @ Appleton St",,"42.417057","-71.199226",,,0,
"12468",,"Appleton St @ Virginia Rd",,"42.418827","-71.191994",,,0,
"1247",,"Tremont St @ Dartmouth St",,"42.342922","-71.073692",,,0,
"1248",,"Tremont St @ Pembroke St",,"42.341751","-71.075912",,,0,
"1249",,"Tremont St @ Rutland Sq",,"42.341022","-71.077309",,,0,
"125",,"Massachusetts Ave @ Clapp St",,"42.323502","-71.063927",,,0,
"1250",,"Tremont St @ Worcester St",,"42.340202","-71.078789",,,0,
"1251",,"Tremont St @ Massachusetts Ave",,"42.33942","-71.080254",,,0,
"1252",,"Tremont St @ Northampton St",,"42.33897","-71.081131",,,0,
"1253",,"Tremont St @ Douglas Pk",,"42.337837","-71.083176",,,0,
"1254",,"Tremont St @ Burke St",,"42.336922","-71.084801",,,0,
"1255",,"Tremont St @ Columbus Ave",,"42.335804","-71.086952",,,0,
"1257",,"Tremont St @ Prentiss St",,"42.333084","-71.092377",,,0,
"1258",,"Tremont St @ Roxbury Crossing Station",,"42.331219","-71.094971",,,0,
"1259",,"Malcolm X Blvd opp Madison Park HS",,"42.331047","-71.090019",,,0,
"126",,"Massachusetts Ave @ Allstate Rd",,"42.324673","-71.064919",,,0,
"1260",,"Columbus Ave @ New Cedar St",,"42.328079","-71.097305",,,0,
"1261",,"Columbus Ave @ New Heath St",,"42.326168","-71.098091",,,0,
"12610",,"Somerville Ave @ Merriam St",,"42.378254","-71.09169",,,0,
"12614",,"Waterhouse St @ Massachusetts Ave",,"42.377678","-71.120323",,,0,
"12615",,"Somerville Ave @ Church St",,"42.381493","-71.100258",,,0,
"12616",,"Somerville Ave @ School St",,"42.382011","-71.101852",,,0,
"12618",,"Washington St opp Harris St",,"42.249249","-71.172157",,,0,
"1262",,"Columbus Ave @ Heath St",,"42.325043","-71.09848",,,0,
"12636",,"Broadway opp Clarendon Hill Busway",,"42.406471","-71.132584",,,0,
"12637",,"Broadway @ Sunnyside Ave",,"42.40741","-71.134567",,,0,
"12638",,"Broadway @ Silk St",,"42.40807","-71.135971",,,0,
"12639",,"Broadway opp Cleveland St",,"42.40884","-71.137589",,,0,
"1264",,"Columbus Ave @ Amory St",,"42.322456","-71.098663",,,0,
"12640",,"Broadway @ N Union St",,"42.409664","-71.139282",,,0,
"12641",,"Broadway opp Harlow St",,"42.410679","-71.141396",,,0,
"12642",,"Broadway @ Tufts St",,"42.411552","-71.143417",,,0,
"12643",,"Broadway @ Allen St",,"42.412437","-71.145569",,,0,
"12645",,"Broadway @ Massachusetts Ave",,"42.414356","-71.150284",,,0,
"12648",,"Broadway @ Allen St",,"42.412327","-71.145561",,,0,
"12649",,"Broadway @ Tufts St",,"42.411438","-71.14341",,,0,
"1265",,"Columbus Ave @ Dimock St",,"42.319672","-71.098541",,,0,
"12650",,"Broadway @ Harlow St",,"42.410568","-71.141396",,,0,
"12651",,"Broadway @ Oxford St",,"42.409554","-71.13929",,,0,
"12652",,"Broadway @ Cleveland St",,"42.4086","-71.137314",,,0,
"12653",,"Broadway opp Silk St",,"42.408092","-71.136246",,,0,
"12654",,"Broadway opp Sunnyside Ave",,"42.407299","-71.13456",,,0,
"1266",,"Columbus Ave @ W Walnut Pk",,"42.317074","-71.098465",,,0,
"1267",,"Columbus Ave @ Washington St",,"42.31591","-71.098396",,,0,
"1268",,"Washington St @ Shepard St",,"42.348236","-71.149879",,,0,
"1269",,"Washington St @ Snow St",,"42.346893","-71.148216",,,0,
"127",,"Massachusetts Ave @ Newmarket SQ",,"42.326683","-71.066605",,,0,
"1270",,"Washington St @ Monastary Rd",,"42.346127","-71.146378",,,0,
"1272",,"Washington St @ Euston St",,"42.344646","-71.144684",,,0,
"1273",,"Washington St @ Commonwealth Ave",,"42.343884","-71.143265",,,0,
"1274",,"Washington St @ Corey St",,"42.342407","-71.140564",,,0,
"1275",,"Wahington St @ Evans Rd",,"42.341057","-71.137947",,,0,
"12759",,"Washington St @ Myrtle St - Cobble Hill Apt",,"42.381748","-71.083809",,,0,
"1276",,"Washington St @ Beacon St",,"42.339489","-71.135704",,,0,
"12767",,"Springfield St opp Houghton St",,"42.375298","-71.10006",,,0,
"1278",,"Washington St @ Winthrop Path",,"42.338322","-71.131599",,,0,
"12783",,"Gordon Ave @ Summer St",,"42.256332","-71.125999",,,0,
"12789",,"West St @ Lodge Hill Rd",,"42.26479","-71.12764",,,0,
"1279",,"Washington St @ Gardner Rd",,"42.338425","-71.129158",,,0,
"128",,"1010 Massachusetts Ave opp Magazine St",,"42.327999","-71.067741",,,0,
"1280",,"Washington St @ Weybridge Rd",,"42.336296","-71.125786",,,0,
"1281",,"Washington St @ Greenough Circle",,"42.335144","-71.124664",,,0,
"12812",,"West St opp Lodge Hill Rd",,"42.264683","-71.12767",,,0,
"12817",,"Gordon Ave @ River St",,"42.255695","-71.125679",,,0,
"12819",,"Hyde Park Ave opp B St",,"42.250874","-71.125908",,,0,
"1282",,"Washington St @ Cypress St",,"42.334541","-71.122879",,,0,
"12821",,"Main St opp Schraffts Bldg",,"42.383732","-71.072327",,,0,
"12826",,"Main St @ Union St",,"42.374619","-71.06385",,,0,
"12829",,"Chelsea St @ Warren St",,"42.371872","-71.06086",,,0,
"1283",,"Washington St @ Harvard St",,"42.332928","-71.118874",,,0,
"12835",,"Chelsea St @ Warren St",,"42.371643","-71.06102",,,0,
"12836",,"Chelsea St @ Warren St",,"42.372162","-71.060234",,,0,
"12837",,"Chelsea St @ Constitution Rd",,"42.375217","-71.056297",,,0,
"12838",,"Chelsea St @ Fifth St",,"42.375568","-71.055832",,,0,
"1285",,"Washington St @ Station St",,"42.332188","-71.118156",,,0,
"12853",,"Thirteenth St @ Second Ave",,"42.377083","-71.051155",,,0,
"12855",,"First Ave @ Ninth St",,"42.376102","-71.052612",,,0,
"12856",,"First Ave @ Fifth St",,"42.374603","-71.055077",,,0,
"12859",,"First Ave @ Eighth St",,"42.37537","-71.053604",,,0,
"1286",,"Washington St @ Harvard St",,"42.333035","-71.118828",,,0,
"12860",,"First Ave @ Ninth St",,"42.376213","-71.052254",,,0,
"12862",,"Thirteenth St @ Fifth Ave",,"42.378601","-71.052284",,,0,
"12866",,"Bunker Hill St @ Baldwin St",,"42.382526","-71.069733",,,0,
"1287",,"Washington St @ School St",,"42.334743","-71.123207",,,0,
"12879",,"Middlesex Ave @ Foley St - Mall Parking Entrance",,"42.392521","-71.082909",,,0,
"1288",,"Washington St opp Greenough St",,"42.335255","-71.124649",,,0,
"12880",,"Middlesex Ave @ Fellsway W",,"42.396259","-71.083946",,,0,
"12888",,"Mystic Ave opp Union St",,"42.414383","-71.109879",,,0,
"12891",,"Pearl St @ High St",,"42.355339","-71.054123",,,0,
"129",,"Rivermoor St @ Charles Park Rd",,"42.27887","-71.175659",,,0,
"1290",,"Washington St opp Gardner Rd",,"42.33852","-71.128914",,,0,
"1291",,"Washington St @ Fairbank St",,"42.338379","-71.131332",,,0,
"1292",,"Washington St @ Beacon St",,"42.339214","-71.135063",,,0,
"1293",,"Washington St @ Bartlett St",,"42.341259","-71.138161",,,0,
"12932",,"Columbia Rd @ Bird St",,"42.314507","-71.067207",,,0,
"1294",,"Washington St @ Corey Rd",,"42.342384","-71.140297",,,0,
"12940",,"Boston St @ Fr Songin Way",,"42.328041","-71.057831",,,0,
"1295",,"Washington St @ Commonwealth Ave",,"42.343601","-71.142525",,,0,
"1296",,"Washington St opp Euston Rd",,"42.344608","-71.144417",,,0,
"1298",,"Washington St @ Monastery Rd",,"42.346069","-71.146118",,,0,
"1299",,"Washington St opp Snow St",,"42.347008","-71.148209",,,0,
"13",,"Andrew Sta - Red Line",,"42.329853","-71.057404",,,0,
"1300",,"Washington St opp Shepard St",,"42.348145","-71.149635",,,0,
"1301",,"7 Winship St",,"42.348827","-71.150757",,,0,
"1302",,"Harvard Ave @ Commonwealth Ave",,"42.350563","-71.13118",,,0,
"1304",,"Harvard St @ Coolidge St",,"42.345901","-71.127808",,,0,
"1306",,"Harvard St @ Williams St",,"42.344471","-71.125404",,,0,
"1307",,"322 Harvard St",,"42.343262","-71.123154",,,0,
"1308",,"Harvard St @ Beacon St",,"42.34227","-71.121475",,,0,
"1309",,"Harvard St @ Marion St",,"42.339832","-71.120956",,,0,
"13093",,"Adams St @ Grenwold Rd",,"42.253029","-71.017746",,,0,
"131",,"Massachusetts Ave @ Shirley St",,"42.326885","-71.067101",,,0,
"1310",,"Harvard St @ Auburn St",,"42.337353","-71.121552",,,0,
"1311",,"Harvard St @ School St",,"42.336002","-71.120644",,,0,
"1312",,"Harvard St @ Pierce St",,"42.334457","-71.119179",,,0,
"13121",,"Dewar Ave @ Dorchester Ave",,"42.309982","-71.057762",,,0,
"1313",,"Harvard St @ Washington St",,"42.332989","-71.118774",,,0,
"1314",,"Huntington Ave @ Jamaicaway",,"42.331764","-71.112526",,,0,
"1315",,"Huntington Ave @ Parker Hill Ave",,"42.333057","-71.109673",,,0,
"1316",,"Huntington Ave @ Mission St",,"42.333138","-71.10714",,,0,
"1317",,"Huntington Ave opp Fenwood Rd",,"42.333618","-71.105553",,,0,
"1319",,"Tremont St opp Wigglesworth St",,"42.333565","-71.103134",,,0,
"1320",,"Tremont St @ Whitney St",,"42.333202","-71.102158",,,0,
"1322",,"Tremont St @ Parker St",,"42.331707","-71.096992",,,0,
"1323",,"Tremont St @ Columbus Ave",,"42.331512","-71.095528",,,0,
"13245",,"Sea St @ Moffat St",,"42.262093","-70.986519",,,0,
"1325",,"Humboldt Ave @ Seaver St",,"42.310047","-71.091904",,,0,
"1326",,"Humboldt Ave @ Hutchings St",,"42.31126","-71.090935",,,0,
"1327",,"Humboldt Ave @ Homestead St",,"42.311798","-71.090515",,,0,
"1328",,"Humboldt Ave @ Crawford St",,"42.31337","-71.089241",,,0,
"133",,"Massachusetts Ave opp Clapp St",,"42.323563","-71.06427",,,0,
"1330",,"Humboldt Ave @ Waumbeck St",,"42.31451","-71.088333",,,0,
"1331",,"Humboldt Ave @ Wyoming St",,"42.315731","-71.087349",,,0,
"1332",,"Humboldt Ave @ Townsend St",,"42.316948","-71.086502",,,0,
"13321",,"Townsend St @ Warren St",,"42.316471","-71.083458",,,0,
"1334",,"Humboldt Ave @ Humboldt Ct",,"42.31855","-71.08609",,,0,
"1335",,"Humboldt Ave @ ML King Blvd",,"42.319252","-71.085953",,,0,
"1337",,"Humboldt Ave @ Walnut Ave",,"42.320534","-71.085945",,,0,
"13378",,"Adams St  @ Galivan Blvd",,"42.28265","-71.055405",,,0,
"1338",,"Walnut Ave @ Rockland St",,"42.322376","-71.084854",,,0,
"1339",,"Walnut Ave @ Richards St",,"42.323429","-71.084099",,,0,
"134",,"Massachusetts Ave @ Columbia Rd",,"42.32053","-71.061607",,,0,
"1340",,"Walnut Ave @ Circuit St",,"42.324036","-71.083237",,,0,
"13400",,"Bryant Ave @ Upton St",,"42.250381","-71.038383",,,0,
"13402",,"Quarry St @ Common St",,"42.25021","-71.025375",,,0,
"13403",,"Opp 270 Quarry St",,"42.248909","-71.021629",,,0,
"13404",,"Opp 150 Quarry St",,"42.246361","-71.016357",,,0,
"13406",,"Granite St @ Packards Lane",,"42.244438","-71.010307",,,0,
"13407",,"125 Granite St",,"42.246281","-71.005943",,,0,
"1341",,"Walnut Ave @ Rockland St",,"42.322369","-71.084999",,,0,
"1342",,"Walnut Ave @ Humboldt Ave",,"42.320709","-71.086075",,,0,
"1344",,"Humboldt Ave @ ML King Blvd",,"42.319195","-71.086082",,,0,
"1345",,"Humboldt Ave @ Munroe St",,"42.318092","-71.086319",,,0,
"1346",,"Humboldt Ave @ Townsend St",,"42.317146","-71.086548",,,0,
"13482",,"Fontbonne Academy",,"42.260113","-71.059372",,,0,
"135",,"Columbia Rd @ Pond St",,"42.319962","-71.059929",,,0,
"1350",,"Humboldt Ave @ Waumbeck St",,"42.314713","-71.088318",,,0,
"1351",,"Humboldt Ave @ Crawford St",,"42.313156","-71.089561",,,0,
"1352",,"Humboldt Ave @ Homestead St",,"42.312004","-71.0905",,,0,
"1353",,"Humboldt Ave @ Hutchings St",,"42.311253","-71.091087",,,0,
"1354",,"Humboldt Ave @ Seaver St",,"42.310043","-71.092056",,,0,
"1357",,"Tremont St opp Roxbury Crossing Sta",,"42.331604","-71.095505",,,0,
"1359",,"Tremont St @ Parker St",,"42.33181","-71.097046",,,0,
"13590",,"Tremont St @ Tobin Community Center",,"42.332039","-71.098213",,,0,
"136",,"Columbia Rd @ Dorchester Ave",,"42.320732","-71.056549",,,0,
"1360",,"Tremont St @ Mission Church",,"42.332485","-71.099876",,,0,
"1361",,"Tremont St @ Worthington St",,"42.33345","-71.102509",,,0,
"13618",,"Washington St @ School St",,"42.247581","-71.17392",,,0,
"1362",,"Tremont St @ Huntington Ave",,"42.334045","-71.104294",,,0,
"1363",,"Huntington Ave @ Fenwood Rd",,"42.333912","-71.105591",,,0,
"1365",,"835 Huntington Ave opp Parker Hill Ave",,"42.333336","-71.109573",,,0,
"1366",,"Huntington Ave @ Riverway",,"42.33205","-71.112617",,,0,
"1367",,"Harvard St @ Kent St",,"42.333126","-71.118668",,,0,
"1368",,"Harvard St @ Linden St",,"42.33477","-71.119217",,,0,
"1369",,"Harvard St @ Aspinwall St",,"42.336113","-71.120613",,,0,
"137",,"Charles Park Rd @ Rivermoor St",,"42.278976","-71.175613",,,0,
"1370",,"Harvard St opp Auburn St",,"42.337284","-71.121414",,,0,
"1371",,"Harvard St opp Vernon St",,"42.338127","-71.121353",,,0,
"1372",,"Harvard St @ Beacon St",,"42.341923","-71.12114",,,0,
"1373",,"Harvard St @ Babcock St",,"42.343479","-71.123367",,,0,
"1374",,"Harvard St @ Beals St",,"42.344711","-71.125694",,,0,
"1375",,"Harvard St @ Coolidge St",,"42.345806","-71.127571",,,0,
"1376",,"Harvard St opp Verndale St",,"42.348457","-71.129402",,,0,
"1378",,"Harvard Ave @ Commonwealth Ave",,"42.350105","-71.130753",,,0,
"1379",,"Harvard Ave @ Brighton Ave",,"42.352856","-71.131966",,,0,
"138",,"Mt Vernon St @ Bay Side Expo Center",,"42.319981","-71.048782",,,0,
"1381",,"W Dedham St @ Washington St",,"42.340565","-71.071136",,,0,
"13817",,"525 Washington St",,"42.206779","-70.956245",,,0,
"13818",,"587 Washington St",,"42.20541","-70.953888",,,0,
"13819",,"Washington St opp West Lake Dr",,"42.203751","-70.950645",,,0,
"1382",,"43 W Dedham St",,"42.342079","-71.072922",,,0,
"13820",,"Washington St @ Winter Ct",,"42.201897","-70.946693",,,0,
"13821",,"735 Middle St",,"42.199444","-70.946198",,,0,
"13822",,"Middle St @ Winter St",,"42.197468","-70.948616",,,0,
"13823",,"Middle St @ Tara Dr",,"42.194214","-70.94973",,,0,
"13824",,"Middle St opp Mediterranean Dr",,"42.189743","-70.952629",,,0,
"13825",,"561 Main St",,"42.187122","-70.955589",,,0,
"13826",,"Opp 650 Main St",,"42.184158","-70.955444",,,0,
"13827",,"Main St @ Adams Place",,"42.179005","-70.955383",,,0,
"13828",,"Opp 85 Columbian St",,"42.176273","-70.953545",,,0,
"13829",,"Opp 41 Columbian St",,"42.175274","-70.952187",,,0,
"1383",,"Dartmouth St @ Tremont St",,"42.342991","-71.073761",,,0,
"13830",,"Pleasant St @ Wilbur St",,"42.172756","-70.95401",,,0,
"13831",,"Opp 861 Main St",,"42.175289","-70.955368",,,0,
"13832",,"780 Main St",,"42.178848","-70.955261",,,0,
"13833",,"650 Main ST",,"42.184219","-70.955322",,,0,
"13834",,"Opp 561 Main St",,"42.187019","-70.955452",,,0,
"13835",,"Middle St @ Mediterranean Dr",,"42.189735","-70.952461",,,0,
"13836",,"Middle St @ Dixon St",,"42.193989","-70.949661",,,0,
"13837",,"Middle St opp Circuit Ave",,"42.197323","-70.948669",,,0,
"13838",,"Opp 735 Middle St",,"42.199444","-70.946068",,,0,
"13839",,"Washington St opp Winter Ct",,"42.201916","-70.946503",,,0,
"1384",,"Dartmouth St @ Appleton St",,"42.345032","-71.074768",,,0,
"13840",,"Washington St @ West Lake Dr",,"42.203777","-70.950455",,,0,
"13841",,"576 Washington St",,"42.205452","-70.953758",,,0,
"13842",,"Washington St @ Avalon Dr",,"42.206779","-70.956055",,,0,
"13843",,"464 Washington St",,"42.208553","-70.957779",,,0,
"13844",,"Pleasant St @ Colonels Dr",,"42.198605","-70.924614",,,0,
"13845",,"Pleasant St @ Sanderson Ave",,"42.201851","-70.924606",,,0,
"13846",,"Pleasant St opp Granite Post Lane",,"42.204823","-70.924438",,,0,
"13847",,"Franklin St opp Payne St",,"42.239849","-71.003311",,,0,
"13848",,"Pleasant St @ Lorraine St",,"42.207054","-70.924599",,,0,
"13849",,"Pleasant St opp Lambert Ave",,"42.20908","-70.92482",,,0,
"13850",,"Pleasant St @ Raymond St",,"42.21146","-70.924461",,,0,
"13851",,"Pleasant St @ Riley Ave",,"42.211395","-70.924576",,,0,
"13852",,"Pleasant St @ Lambert Ave",,"42.209194","-70.924934",,,0,
"13853",,"Pleasant St @ Village Rd",,"42.207016","-70.924713",,,0,
"13854",,"Pleasant St @ Granite Post Lane",,"42.204948","-70.92453",,,0,
"13855",,"Pleasant St opp Sanderson Ave",,"42.201904","-70.924736",,,0,
"13856",,"Mutton Lane @ Old Stone Way",,"42.199524","-70.925278",,,0,
"13857",,"100 Mutton Lane",,"42.197632","-70.928307",,,0,
"13858",,"1197 Washington St",,"42.196434","-70.927979",,,0,
"13859",,"851 Pleasant St",,"42.196686","-70.92572",,,0,
"1389",,"Boylston St opp Gloucester St",,"42.34837","-71.083519",,,0,
"139",,"263 Mt Vernon St @ St Christopher's Church",,"42.319324","-71.04686",,,0,
"1395",,"Dartmouth St @ Appleton St",,"42.345169","-71.074966",,,0,
"13959",,"Franklin St @ Guild St",,"42.242504","-71.003456",,,0,
"1396",,"Dartmouth St @ Tremont St",,"42.342899","-71.073845",,,0,
"1397",,"Opp 43 W Dedham St",,"42.341938","-71.072922",,,0,
"1398",,"W Dedham St @ Washington St",,"42.340759","-71.070877",,,0,
"1399",,"Belvidere St @ Huntington Ave",,"42.345547","-71.081932",,,0,
"14",,"Dorchester St @ Dorchester Ave",,"42.329617","-71.056816",,,0,
"140",,"Mt Vernon St @ Paul A. Dever School",,"42.317928","-71.042801",,,0,
"1400",,"Cambridge St @ Prescott St",,"42.375233","-71.112869",,,0,
"1401",,"Cambridge St @ Trowbridge St",,"42.374897","-71.110199",,,0,
"1402",,"Cambridge St @ Dana St",,"42.374496","-71.107193",,,0,
"1403",,"Cambridge St @ Highland Ave",,"42.374161","-71.10453",,,0,
"14030",,"Franklin St opp Summer St.",,"42.203289","-71.007919",,,0,
"14031",,"Cambridge St @ Fayette St",,"42.373852","-71.102211",,,0,
"14039",,"Pond St @ Massina Rd",,"42.192482","-71.029251",,,0,
"1404",,"Cambridge St @ Hampshire St",,"42.373611","-71.100327",,,0,
"1405",,"Cambridge St @ Prospect St",,"42.373344","-71.098244",,,0,
"14056",,"88 North St",,"42.164883","-71.039536",,,0,
"1406",,"Cambridge St @ Norfork St",,"42.3731","-71.096359",,,0,
"1407",,"Cambridge St @ Elm St",,"42.372982","-71.095497",,,0,
"1408",,"Cambridge St @ Windsor St",,"42.372677","-71.093086",,,0,
"1409",,"Cambridge St @ Berkshire St",,"42.372261","-71.089882",,,0,
"141",,"Alewife Station Busway",,"42.395481","-71.142616",,,0,
"1410",,"Cambridge St @ Cardinal Medeiros Ave",,"42.372089","-71.088577",,,0,
"1411",,"Cambridge St @ Sixth St",,"42.37162","-71.084923",,,0,
"1412",,"Cambridge St @ Fifth St",,"42.37141","-71.08326",,,0,
"1413",,"Cambridge St @ Sciarappa St",,"42.371197","-71.081635",,,0,
"1414",,"Cambridge St @ Third St",,"42.370987","-71.079971",,,0,
"1415",,"Lechmere Station",,"42.370651","-71.076851",,,0,
"14150",,"Lechmere Station - OUTBOUND",,"42.371082","-71.07663",,,0,
"1416",,"Cambridge St @ Third St",,"42.371094","-71.080025",,,0,
"1417",,"Cambridge St @ Sciarappa St",,"42.3713","-71.081688",,,0,
"1418",,"Cambridge St @ Fifth St",,"42.37151","-71.083321",,,0,
"14180",,"618 N Main St opp Vesey Rd",,"42.177822","-71.050316",,,0,
"1419",,"Cambridge St @ Sixth St",,"42.371681","-71.084656",,,0,
"142",,"Mt Vernon St @ South Point Dr",,"42.317085","-71.040215",,,0,
"1420",,"Cambridge St @ Lambert St",,"42.372017","-71.08725",,,0,
"1421",,"Cambridge St @ Berkshire St",,"42.372364","-71.089943",,,0,
"14211",,"Central Ave @ Central Ave Station",,"42.270187","-71.073158",,,0,
"1422",,"Cambridge St @ Windsor St",,"42.37278","-71.09314",,,0,
"14225",,"S Main St opp Woodlawn Rd",,"42.143818","-71.041412",,,0,
"1423",,"Cambridge St @ Norfork St",,"42.373161","-71.0961",,,0,
"14233",,"Main St @ Demarco Park",,"42.134274","-71.039589",,,0,
"1424",,"Cambridge St @ Prospect St",,"42.373409","-71.097977",,,0,
"1425",,"Cambridge St @ Springfield St",,"42.373703","-71.100327",,,0,
"1426",,"Cambridge St opp Fayette St",,"42.373959","-71.102264",,,0,
"1427",,"Cambridge St @ Camelia Ave",,"42.374325","-71.105019",,,0,
"1428",,"Cambridge St opp Dana St",,"42.374557","-71.106926",,,0,
"1429",,"Cambridge St @ Trowbridge St",,"42.374958","-71.109932",,,0,
"143",,"Boylston St @ Clarendon St",,"42.350605","-71.075287",,,0,
"1430",,"Felton St @ Cambridge St",,"42.375061","-71.112335",,,0,
"14301",,"Pearl St @ Hancock St",,"42.202202","-71.00486",,,0,
"14302",,"Pearl St @ Ivory Plaza",,"42.203308","-70.99839",,,0,
"1431",,"Broadway @ Felton St",,"42.373966","-71.112663",,,0,
"1432",,"Arsenal St @ Irving St",,"42.364769","-71.178879",,,0,
"14320",,"Adams st @ Whitwell St",,"42.253082","-71.017288",,,0,
"1433",,"Arsenal St @ Beacon Pk",,"42.364548","-71.175438",,,0,
"14331",,"Edgehill Rd @ Hollis St",,"42.257145","-71.043633",,,0,
"1434",,"Arsenal St @ Beachwood Ave",,"42.364361","-71.173347",,,0,
"1435",,"Arsenal St @ Louise St",,"42.364174","-71.171181",,,0,
"1436",,"Arsenal St opp School St",,"42.363796","-71.166817",,,0,
"1437",,"Arsenal St @ Arsenal Ct",,"42.363586","-71.164825",,,0,
"1438",,"500 Arsenal St - Watertown + Arsenal Mall",,"42.362816","-71.158203",,,0,
"14383",,"Common St @ Hilltop St",,"42.252758","-71.025078",,,0,
"144",,"Boylston St @ Berkeley St",,"42.351196","-71.073166",,,0,
"1441",,"Arsenal St opp Elm St",,"42.362583","-71.156128",,,0,
"1442",,"Arsenal St opp Arlington St",,"42.36227","-71.153366",,,0,
"14423",,"Shaw St @ Quintree Mall",,"42.232647","-70.979782",,,0,
"1443",,"Arsenal St @ Arlington St",,"42.362461","-71.153397",,,0,
"1444",,"Arsenal St @ Elm St",,"42.362724","-71.155655",,,0,
"1445",,"Arsenal St @ Watertown + Arsenal Mall",,"42.363125","-71.159447",,,0,
"14460",,"Highland Ave @ Salem Hospital",,"42.511692","-70.908997",,,0,
"14464",,"Highland Ave opp First St",,"42.506073","-70.919128",,,0,
"14465",,"Highland Ave @ Hawthorne Sq",,"42.504341","-70.922173",,,0,
"14468",,"Highland Ave opp Cedar Rd",,"42.497986","-70.930473",,,0,
"1447",,"Arsenal St opp Arsenal Ct Dr",,"42.363678","-71.16481",,,0,
"14470",,"Highland Ave @ Wal Mart",,"42.490749","-70.93576",,,0,
"1448",,"Arsenal St @ School St",,"42.363895","-71.166878",,,0,
"14481",,"Arsenal St opp VFW Post 1105",,"42.364159","-71.169899",,,0,
"1449",,"Arsenal St opp Louise St",,"42.364273","-71.171249",,,0,
"145",,"Arlington St @ Saint James Ave",,"42.35112","-71.070442",,,0,
"1450",,"Arsenal St opp Beachwood Ave",,"42.36446","-71.173416",,,0,
"1451",,"Arsenal St opp  Beacon Pk",,"42.364639","-71.175423",,,0,
"1452",,"Arsenal St @ Irving St",,"42.364868","-71.178947",,,0,
"14544",,"Highland Ave opp Olde Village Dr",,"42.496082","-70.932236",,,0,
"14546",,"331 Highland Ave",,"42.500183","-70.927231",,,0,
"14548",,"Highland Ave @ Hawthorne Sq",,"42.504375","-70.921677",,,0,
"14551",,"Highland Ave @ Wilson St",,"42.50964","-70.910469",,,0,
"14552",,"Highland Ave @ Almeda St",,"42.510475","-70.909882",,,0,
"14553",,"Highland Ave opp Proctor St",,"42.513256","-70.90728",,,0,
"14572",,"Lynnfield St @ Honey Ln",,"42.515804","-70.971756",,,0,
"14594",,"Lynnfierld St @ Ralph Rd",,"42.512428","-70.982719",,,0,
"146",,"Arlington St @ Isabella St",,"42.348824","-71.069534",,,0,
"14609",,"Margin St @ Shore Ave N",,"42.542267","-70.919212",,,0,
"14612",,"Water St opp Broad St",,"42.549541","-70.921478",,,0,
"14614",,"Endicott St @ Route 128",,"42.549042","-70.936371",,,0,
"14618",,"445 Washington St @ Worthington St.",,"42.245483","-71.175301",,,0,
"1468",,"Bowdoin St @ Geneva Ave",,"42.30352","-71.071274",,,0,
"1469",,"169 Bowdoin St opp Eunice St",,"42.304283","-71.06958",,,0,
"147",,"Herald St @ Tremont St",,"42.347389","-71.068436",,,0,
"1470",,"Bowdoin St @ Norton St",,"42.305443","-71.067932",,,0,
"1471",,"Bowdoin St @ Hamilton St",,"42.306141","-71.067039",,,0,
"14717",,"American Legion Hwy @ Beach St - Bell Circle",,"42.409473","-71.002083",,,0,
"1472",,"Bowdoin St opp Elba Terr",,"42.307583","-71.065468",,,0,
"14726",,"Bennington St @ Wood Island Station",,"42.380627","-71.023468",,,0,
"1473",,"Bowdoin St @ Quincy St",,"42.30817","-71.064857",,,0,
"14731",,"Bowdoin St @ Adams St",,"42.308952","-71.064049",,,0,
"1474",,"Bowdoin St @ Winter St",,"42.310223","-71.062668",,,0,
"14748",,"Lynn Commuter Rail Busway",,"42.461872","-70.945961",,,0,
"1475",,"Hancock St @ Bowdoin St",,"42.311329","-71.06266",,,0,
"14752",,"Lewis St @ Basset St",,"42.465797","-70.930717",,,0,
"1477",,"116 Hancock St opp Howe St",,"42.312115","-71.063622",,,0,
"1478",,"Hancock St @ Rowell St",,"42.312691","-71.064476",,,0,
"1479",,"Hancock St @ Jerome  St",,"42.314754","-71.065773",,,0,
"148",,"Herald St @ Washington St",,"42.346588","-71.06472",,,0,
"1480",,"Columbia Rd @ Hancock St",,"42.315914","-71.066139",,,0,
"1481",,"Dudley St @ Belden St",,"42.317543","-71.066086",,,0,
"1482",,"Dudley St @ Humphreys St",,"42.318401","-71.068108",,,0,
"14822",,"Humphrey St @ Alden Rd",,"42.469639","-70.896065",,,0,
"1483",,"Dudley St @ Burgess St",,"42.319496","-71.070541",,,0,
"14831",,"Dudley St opp Howard Ave",,"42.320118","-71.071144",,,0,
"14836",,"Mugford St @ Elm St",,"42.506237","-70.851822",,,0,
"1484",,"Dudley St @ E Cottage St",,"42.321522","-71.072166",,,0,
"1485",,"Dudley St @ Langdon St",,"42.323914","-71.073975",,,0,
"1486",,"Dudley St @ Magazine St",,"42.325394","-71.074997",,,0,
"14860",,"Humphrey St @ Winthrop Ave",,"42.482182","-70.889214",,,0,
"14868",,"Salem St @ Tedesco Golf Course",,"42.481739","-70.897308",,,0,
"1487",,"Dudley St @ Hampden St",,"42.32626","-71.075409",,,0,
"14875",,"Paradise Rd @ Lou Rudolph Way",,"42.479607","-70.90538",,,0,
"1488",,"Dudley St @ Adams St",,"42.327686","-71.077263",,,0,
"1489",,"Dudley St @ Dearborn St",,"42.328537","-71.079124",,,0,
"1490",,"Dudley St @ Winslow St",,"42.328533","-71.08139",,,0,
"1491",,"Dudley St @ Warren St",,"42.328693","-71.083321",,,0,
"14925",,"Washington St @ Blaney Ave",,"42.520802","-70.934776",,,0,
"14929",,"Main St @ Howley St",,"42.522896","-70.919662",,,0,
"1493",,"Dudley St @ Greenville St",,"42.328449","-71.081009",,,0,
"14935",,"133 Main St.",,"42.522923","-70.920242",,,0,
"14936",,"Washington St @ Lincoln Pl",,"42.52113","-70.926849",,,0,
"1494",,"Dudley St @ Mt Pleasant Ave",,"42.328465","-71.079384",,,0,
"14940",,"79 Lynnfield St opp Norfolk Ave",,"42.516834","-70.950523",,,0,
"1495",,"Dudley St @ Adams St",,"42.327747","-71.077522",,,0,
"1496",,"381 Dudley St opp Hampden St",,"42.326149","-71.075447",,,0,
"1497",,"Dudley St @ Blue Hill Ave",,"42.325092","-71.074959",,,0,
"1498",,"Dudley St @ Dennis St",,"42.323811","-71.074036",,,0,
"1499",,"Dudley St @ W Cottage St",,"42.321445","-71.072273",,,0,
"15",,"Dorchester St @ Vinton St",,"42.330723","-71.054543",,,0,
"150",,"Broadway Station - Red Line",,"42.342873","-71.057114",,,0,
"1500",,"Dudley St @ Howard Ave",,"42.320198","-71.071396",,,0,
"15002",,"High St @ Bradlee Rd",,"42.418777","-71.111443",,,0,
"1501",,"Dudley St @ Magnolia St",,"42.318844","-71.069542",,,0,
"1503",,"Dudley St @ Columbia Rd",,"42.317085","-71.065338",,,0,
"15038",,"George St @ Burget Ave",,"42.412861","-71.116524",,,0,
"1504",,"Hancock St @ Bird St",,"42.314903","-71.065956",,,0,
"15045",,"Spruce St @ Market Basket",,"42.395203","-71.039742",,,0,
"15046",,"Spruce St @ Williams St",,"42.392525","-71.044418",,,0,
"15047",,"Captains Row @ Commandants Way",,"42.391762","-71.047493",,,0,
"15048",,"150 Captains Row",,"42.390873","-71.045685",,,0,
"15049",,"Captains Row @ Boatswains Way",,"42.38847","-71.046013",,,0,
"1505",,"Hancock St @ Glendale St",,"42.313622","-71.065308",,,0,
"15050",,"5 Admirals Way",,"42.38895","-71.046738",,,0,
"15052",,"Commandants Way @ Williams St",,"42.392334","-71.044533",,,0,
"15053",,"45 Spruce St",,"42.393658","-71.042213",,,0,
"15054",,"100 Everett Ave",,"42.394302","-71.03936",,,0,
"15055",,"Spruce St @ Everett Ave",,"42.395164","-71.039597",,,0,
"15058",,"Boston Regional Medical Ctr",,"42.451015","-71.087944",,,0,
"15059",,"Woodland Rd @ Molyneaux Circle",,"42.442623","-71.094246",,,0,
"1506",,"Hancock St @ Trull St",,"42.312691","-71.064651",,,0,
"15060",,"Highland Ave @ Sturges St",,"42.440769","-71.091911",,,0,
"15061",,"Highland Ave @ Waddel St",,"42.438526","-71.089149",,,0,
"1507",,"Hancock St @ Howe St",,"42.312008","-71.063652",,,0,
"1508",,"Hancock St @ Bowdoin St",,"42.310272","-71.062828",,,0,
"15088",,"Harrison Ave opp. East Springfield St.",,"42.335426","-71.074448",,,0,
"15089",,"E Concord St @ Albany St",,"42.335186","-71.071823",,,0,
"1509",,"Bowdoin St @ Tovar St",,"42.310116","-71.063141",,,0,
"15094",,"Washington St @ Savoy St",,"42.342022","-71.067924",,,0,
"15095",,"Washington St @ Herald St",,"42.346516","-71.064552",,,0,
"1510",,"Bowdoin St @ Hendry St",,"42.308826","-71.064323",,,0,
"15100",,"St Peters Sq @ Church",,"42.308113","-71.064369",,,0,
"1511",,"Bowdoin St @ Quincy St",,"42.308182","-71.06501",,,0,
"1512",,"Bowdoin St @ Hamilton St",,"42.306339","-71.066978",,,0,
"1513",,"Bowdoin St @ Olney St",,"42.305305","-71.068298",,,0,
"1514",,"Bowdoin St @ Eunice St",,"42.304306","-71.069725",,,0,
"1515",,"Bowdoin St @ Geneva Ave",,"42.303513","-71.071426",,,0,
"15176",,"Washington St @ Worcester St",,"42.337368","-71.075905",,,0,
"1518",,"Brookline Ave opp Yawkey Way",,"42.346909","-71.098923",,,0,
"1519",,"Brookline Ave @ Fullerton St",,"42.344788","-71.101151",,,0,
"152",,"W Broadway @ A St",,"42.341698","-71.05542",,,0,
"1520",,"Brookline Ave @ Park Dr",,"42.343441","-71.102577",,,0,
"15201",,"Preble St @ Rogers St",,"42.329235","-71.055389",,,0,
"1521",,"Brookline Ave @ Longwood Ave",,"42.33884","-71.10746",,,0,
"15216",,"Centre @ Colbert St",,"42.287582","-71.146584",,,0,
"1522",,"Brookline Ave @ Deaconess Rd",,"42.338089","-71.108284",,,0,
"1523",,"Brookline Ave @ Francis St",,"42.336906","-71.109512",,,0,
"15235",,"Washington St @ Rockvale Circle",,"42.307663","-71.106224",,,0,
"15236",,"Washington St @ Sylvia St",,"42.310581","-71.103348",,,0,
"1524",,"Brookline Ave @ Aspinwall Ave",,"42.334839","-71.111671",,,0,
"15241",,"Centre St @ Louders Ln",,"42.30587","-71.124466",,,0,
"1525",,"Brookline Ave @ Pearl St",,"42.332817","-71.113831",,,0,
"15256",,"Centre St @ Manthorne St",,"42.287323","-71.14994",,,0,
"1526",,"Washington St @ Pearl St",,"42.331902","-71.116615",,,0,
"1527",,"Walnut St @ High St",,"42.331284","-71.117836",,,0,
"1528",,"High St opp Edgehill Rd",,"42.32769","-71.119347",,,0,
"1529",,"High St @ Oakland Rd",,"42.326283","-71.120224",,,0,
"15291",,"High St @ Cypress St",,"42.324863","-71.121399",,,0,
"153",,"W Broadway @ B St",,"42.340656","-71.05381",,,0,
"1530",,"Cypress St opp Henry St",,"42.325439","-71.121895",,,0,
"1531",,"Cypress St @ Rice St",,"42.327179","-71.124168",,,0,
"1532",,"Cypress St @ Walnut St",,"42.328453","-71.125809",,,0,
"1533",,"Boylston St @ Clark Rd",,"42.329754","-71.128525",,,0,
"1534",,"Boylston St @ Sumner Rd",,"42.329006","-71.132782",,,0,
"1535",,"Boylston St  @ Chestnut Hill Av",,"42.326569","-71.142456",,,0,
"15351",,"Boylston St @ Timon Ave",,"42.32655","-71.145256",,,0,
"1536",,"Boylston St @ Reservoir Rd",,"42.326698","-71.148018",,,0,
"15367",,"Main St @ Pleasant St",,"42.425987","-71.067596",,,0,
"1537",,"Opp 850 Boylston St",,"42.326836","-71.150154",,,0,
"1538",,"Opp 910 Boylston St",,"42.326359","-71.153969",,,0,
"1539",,"Boylston St @ Norfolk Rd",,"42.324772","-71.15921",,,0,
"154",,"W Broadway @ D St",,"42.338818","-71.050972",,,0,
"1540",,"Boylston St @ Hammond St",,"42.32362","-71.163925",,,0,
"1541",,"Boylston St @ Randolph Rd",,"42.324501","-71.159065",,,0,
"1542",,"910 Boylston St",,"42.326096","-71.153862",,,0,
"1543",,"850 Boylston St",,"42.326508","-71.149628",,,0,
"15431",,"Centre St @ Jackson St",,"42.425476","-71.070335",,,0,
"1544",,"Opp 763 Boylston St",,"42.326286","-71.145485",,,0,
"1545",,"Boylston St @ Heath St",,"42.326237","-71.142654",,,0,
"1546",,"Boylston St @ Warren St",,"42.32872","-71.132622",,,0,
"1547",,"Boylston St @ Kennard Rd",,"42.329506","-71.128426",,,0,
"1548",,"Cypress St @ Milton Rd",,"42.329479","-71.126137",,,0,
"1549",,"Cypress St @ Walnut",,"42.32856","-71.126038",,,0,
"155",,"W Broadway @ E St",,"42.337666","-71.049179",,,0,
"1550",,"Cypress St @ Kendall St",,"42.327282","-71.124397",,,0,
"1551",,"Cypress St @ Franklin St",,"42.325569","-71.122292",,,0,
"1552",,"High St @ Cypress St",,"42.32481","-71.121277",,,0,
"1553",,"High St @ Highland Rd",,"42.32608","-71.120193",,,0,
"1554",,"High St @ Cumberland Ave",,"42.327877","-71.11911",,,0,
"1555",,"Washington @ Walnut",,"42.3316","-71.116158",,,0,
"1556",,"678 Brookline Ave opp Pearl St",,"42.332302","-71.114197",,,0,
"15566",,"19 Ferry St",,"42.404587","-71.047882",,,0,
"1557",,"Brookline Ave opp Aspinwall Ave",,"42.334835","-71.111519",,,0,
"1558",,"Brookline Ave @ Francis St",,"42.336899","-71.109367",,,0,
"1559",,"Brookline Ave @ Deaconess Rd",,"42.337891","-71.108337",,,0,
"156",,"W Broadway @ F St",,"42.336678","-71.047646",,,0,
"15618",,"525 Washington St opp Marion St",,"42.243904","-71.176682",,,0,
"1562",,"132 Brookline Ave opp Fullerton St",,"42.34478","-71.101006",,,0,
"15625",,"Everett Ave @ Revere Beach Pkwy",,"42.402653","-71.041771",,,0,
"1563",,"Brookline Ave @ Yawkey Way",,"42.346706","-71.098984",,,0,
"1564",,"Brookline Ave @ Newbury St",,"42.348389","-71.097244",,,0,
"15645",,"Everett Ave @ Revere Beach Pkwy",,"42.402081","-71.041718",,,0,
"15649",,"Summit Ave @ Lafayette Ave",,"42.402435","-71.033714",,,0,
"1565",,"Franklin Park Loop @ Zoo entrance",,"42.302269","-71.086388",,,0,
"15650",,"Summit Ave @ Chelsea Soldiers Home",,"42.40184","-71.030731",,,0,
"15651",,"Summit Ave @ Warren Ave",,"42.401447","-71.029114",,,0,
"1566",,"Blue Hill Ave opp Warren St",,"42.309635","-71.082451",,,0,
"15660",,"Blue Hill Ave @ Devon St",,"42.310738","-71.081566",,,0,
"15661",,"Blue Hill Ave @ Lawrence Ave",,"42.313412","-71.079498",,,0,
"1567",,"Blue Hill Ave @ Intervale St",,"42.31179","-71.080742",,,0,
"1568",,"Blue Hill Ave @ Creston St",,"42.312588","-71.080093",,,0,
"1569",,"Blue Hill Ave @ Quincy St",,"42.314507","-71.078819",,,0,
"157",,"W Broadway @ Dorchester St",,"42.335529","-71.045822",,,0,
"1570",,"Blue Hill Ave @ Woodcliff St",,"42.316135","-71.078102",,,0,
"1571",,"Blue Hill Ave @ Ingleside St",,"42.317329","-71.077927",,,0,
"1572",,"Blue Hill Ave @ Julian St",,"42.319191","-71.07769",,,0,
"1573",,"Blue Hill Ave @ W Cottage St",,"42.320339","-71.077682",,,0,
"15739",,"Paris St @ Maverick St",,"42.370533","-71.039612",,,0,
"1574",,"Blue Hill Ave @ Moreland St",,"42.322788","-71.076668",,,0,
"1575",,"Blue Hill Ave @ Winthrop St",,"42.323517","-71.076157",,,0,
"1576",,"Blue Hill Ave @ Dudley St",,"42.325134","-71.07502",,,0,
"1577",,"Blue Hill Ave @ Mt Pleasant Ave",,"42.325134","-71.075172",,,0,
"15775",,"Revere St @ Sachem St",,"42.418678","-70.989769",,,0,
"15778",,"Ocean Ave @  Chester Ave",,"42.41275","-70.990715",,,0,
"1578",,"Blue Hill Ave @ Winthrop St",,"42.323505","-71.076302",,,0,
"15787",,"Beach St @ Cary Ave",,"42.409309","-71.006889",,,0,
"1579",,"Blue Hill Ave opp Stafford St",,"42.322151","-71.077232",,,0,
"158",,"442 W Broadway",,"42.336231","-71.046722",,,0,
"1580",,"Blue Hill Ave @ Irwin St",,"42.321136","-71.077606",,,0,
"1581",,"Blue Hill Ave @ Clifford St",,"42.318909","-71.077812",,,0,
"1582",,"Blue Hill Ave @ Edgewood St",,"42.317165","-71.078087",,,0,
"15820",,"Blue Hill Ave @ Maywood St",,"42.315964","-71.07827",,,0,
"1583",,"Blue Hill Ave @ Quincy St",,"42.314713","-71.078835",,,0,
"15832",,"267 Cooledge St",,"42.417473","-71.018265",,,0,
"1584",,"Blue Hill Ave @ Gaston St",,"42.313324","-71.079681",,,0,
"1585",,"Blue Hill Ave @ Brunswick St",,"42.311462","-71.081146",,,0,
"15857",,"Sumner St @ Orleans St",,"42.368122","-71.038155",,,0,
"1586",,"Blue Hill Av @ Stanwood St",,"42.310158","-71.082169",,,0,
"1587",,"Franklin Park Zoo @ Entrance",,"42.303139","-71.085945",,,0,
"1589",,"Western Ave @ Riverdale St",,"42.363163","-71.132034",,,0,
"159",,"W Broadway @ F St",,"42.336945","-71.047874",,,0,
"1592",,"Ruggles St @ Tremont St",,"42.334743","-71.088478",,,0,
"1593",,"Ruggles St @ Shawmut Ave",,"42.332088","-71.084206",,,0,
"15940",,"Grove St @ Walnut St",,"42.453182","-71.064796",,,0,
"15945",,"Lebanaon St @ Naples Rd",,"42.445641","-71.057007",,,0,
"15969",,"Washington St opp Brazil St",,"42.442184","-71.07196",,,0,
"15970",,"Pleasant St opp Converse Ln",,"42.44632","-71.071747",,,0,
"15971",,"Pleasant St opp Gould St",,"42.447987","-71.071533",,,0,
"15974",,"Pleasant St opp Everett St",,"42.450619","-71.070389",,,0,
"15975",,"Wyoming Ave @ Cottage St",,"42.452847","-71.071899",,,0,
"15976",,"Wyoming Ave @ Cleveland St",,"42.453712","-71.074852",,,0,
"15977",,"Wyoming Ave @ Whittier St",,"42.454334","-71.076881",,,0,
"15978",,"Wyoming Ave @ Ravine Terr",,"42.455006","-71.079201",,,0,
"15979",,"Wyoming Ave @ Fellsway E",,"42.456131","-71.083107",,,0,
"15982",,"Main St @ South St",,"42.465908","-71.100693",,,0,
"15983",,"550 Main St",,"42.470829","-71.100731",,,0,
"15984",,"Main St @ Summer St",,"42.474133","-71.100662",,,0,
"15985",,"Main St @ Hancock St",,"42.47636","-71.100418",,,0,
"15986",,"Main St @ Franklin St",,"42.478794","-71.100113",,,0,
"15987",,"Main St @ William St",,"42.484909","-71.100044",,,0,
"15988",,"Main St @ Elm St",,"42.486771","-71.099968",,,0,
"15989",,"Redstone Shopping Center",,"42.495045","-71.100685",,,0,
"15990",,"159 Main St opp Collincote St",,"42.491711","-71.100601",,,0,
"15992",,"Main St opp Franklin St",,"42.478867","-71.100342",,,0,
"15993",,"Main St @ Hancock St",,"42.476555","-71.100639",,,0,
"15994",,"Main St @ Summer St",,"42.474289","-71.100883",,,0,
"15995",,"Main St @ Graystone Rd",,"42.470161","-71.100906",,,0,
"15999",,"Wyoming Ave @ Fellsway E",,"42.456028","-71.083061",,,0,
"16",,"Dorchester St @ Old Colony Ave",,"42.331638","-71.05291",,,0,
"160",,"W Broadway @ E St",,"42.337936","-71.0494",,,0,
"1600",,"Lexington St @ College Farm Rd",,"42.399921","-71.234291",,,0,
"16000",,"Wyoming Ave @ Ravine Rd",,"42.454762","-71.078728",,,0,
"16001",,"Wyoming Ave @ Melbourne Ave",,"42.454311","-71.077156",,,0,
"1601",,"Opp 617 Lexington St - Waltham HS",,"42.396557","-71.235847",,,0,
"1602",,"Lexington St opp Stanley Rd",,"42.394764","-71.236839",,,0,
"1604",,"Lexington St @ Curve St",,"42.393124","-71.23774",,,0,
"1605",,"Lexington St @ Lincoln St",,"42.391678","-71.238564",,,0,
"1606",,"Bacon St @ Clark Ln",,"42.388008","-71.240189",,,0,
"1607",,"Bacon St @ Greenwood Ln",,"42.386673","-71.240623",,,0,
"1608",,"Bacon St @ Kendall Pk",,"42.385002","-71.241165",,,0,
"1609",,"Bacon St @ Dale St",,"42.384132","-71.24144",,,0,
"161",,"W Broadway @ D St",,"42.338928","-71.050949",,,0,
"16102",,"Congress St opp Shetland Pk",,"42.51775","-70.88942",,,0,
"16118",,"Loring Ave @ Station Rd",,"42.497578","-70.894997",,,0,
"1612",,"W Boundary Rd @ Cedarcrest Ln",,"42.26236","-71.146599",,,0,
"16126",,"1000 Loring Ave",,"42.485146","-70.90374",,,0,
"1613",,"W Boundary Rd @ Ohrenberger School",,"42.261063","-71.147072",,,0,
"16131",,"Essex St @ Jackson Pk",,"42.478054","-70.918442",,,0,
"16132",,"Essex St opp Burrill St",,"42.475937","-70.921707",,,0,
"1614",,"W Boundary Rd @ Georgetown Dr",,"42.259331","-71.145546",,,0,
"1615",,"Margaretta Dr @ Georgetown Dr",,"42.257618","-71.145226",,,0,
"16156",,"Opp 1000 Loring Ave",,"42.485065","-70.903633",,,0,
"1616",,"Margaretta Dr @ Crownpoint Dr",,"42.257423","-71.146393",,,0,
"1617",,"Opp 67 Crown Point Dr",,"42.257217","-71.146431",,,0,
"16170",,"Loring Ave @ Salem State",,"42.50473","-70.89119",,,0,
"16177",,"Lafayette @ Leavitt St",,"42.514473","-70.892456",,,0,
"1618",,"84 Georgetown Pl",,"42.255707","-71.143814",,,0,
"162",,"W Broadway @ C St",,"42.339931","-71.05249",,,0,
"1620",,"Georgetown Dr @ Margaretta Rd",,"42.257488","-71.144936",,,0,
"1621",,"W Boundary Rd @ Georgetown Dr",,"42.259357","-71.145401",,,0,
"1622",,"W Boundary Rd @ Ohrenberger School",,"42.261135","-71.146957",,,0,
"1623",,"W Boundary Rd @ Cedarcrest Rd",,"42.262695","-71.146362",,,0,
"1627",,"Liberty St @ Water St",,"42.240601","-71.005959",,,0,
"1628",,"Liberty St @ Quincy St",,"42.239262","-71.007202",,,0,
"1629",,"Liberty St @ Brook Rd",,"42.238781","-71.008034",,,0,
"163",,"W Broadway @ B St",,"42.340923","-71.054031",,,0,
"1630",,"Trafford St @ Brooks Ave",,"42.238132","-71.009918",,,0,
"16304",,"High St opp Harvard Ave",,"42.421291","-71.132973",,,0,
"16305",,"High St @ Johnson Ave",,"42.42157","-71.13485",,,0,
"1631",,"Trafford St @ Taber St",,"42.236874","-71.010941",,,0,
"16316",,"High St @ Harvard Ave",,"42.421227","-71.133224",,,0,
"1632",,"Opp 86 Trafford St",,"42.236504","-71.011307",,,0,
"1633",,"Centre St @ Intervale St",,"42.236366","-71.013359",,,0,
"1634",,"Centre St @ Brooks Ave",,"42.238064","-71.015083",,,0,
"1635",,"Centre St @ Granite St",,"42.239738","-71.016754",,,0,
"16358",,"River St @ Walter St",,"42.257523","-71.119476",,,0,
"1636",,"Centre St @ Kent St",,"42.241009","-71.018784",,,0,
"16360",,"River St @ Maida Terr",,"42.261101","-71.113312",,,0,
"16361",,"Metropolitan Ave @ Central Ave",,"42.263905","-71.118195",,,0,
"16364",,"River St @ Holmfield Ave",,"42.263962","-71.101097",,,0,
"16365",,"River St @ Tesla St",,"42.266453","-71.097191",,,0,
"1637",,"West St @ Centre St",,"42.241993","-71.021492",,,0,
"16372",,"River St @ Blake St",,"42.263412","-71.106689",,,0,
"1638",,"West St @ Lyons St",,"42.241592","-71.022919",,,0,
"1639",,"West St @ Ida St",,"42.240761","-71.024086",,,0,
"16391",,"Fairmont Ave opp Nott St",,"42.254223","-71.119858",,,0,
"1640",,"West St @ Doble St",,"42.2393","-71.025261",,,0,
"16403",,"Summit St @ Neponset Ave",,"42.247307","-71.117851",,,0,
"1641",,"West St @ Hayden St",,"42.238609","-71.025536",,,0,
"1642",,"West St @ Wickford Ln",,"42.237225","-71.02639",,,0,
"1643",,"West St @ Willard St",,"42.235783","-71.02845",,,0,
"16434",,"Cummins Hwy @ American Legion Hwy",,"42.278591","-71.116127",,,0,
"1644",,"Willard St opp Ames St",,"42.234814","-71.02861",,,0,
"1645",,"Opp 710 Willard St",,"42.233791","-71.028931",,,0,
"16458",,"Cummins Hwy @ Fairway St",,"42.268349","-71.09523",,,0,
"16459",,"Cummins Hwy @ Regis Rd",,"42.269661","-71.097054",,,0,
"1646",,"Willard St opp St Moritz Ave",,"42.232086","-71.029953",,,0,
"16466",,"Hyde Park Ave @ Milton St",,"42.239098","-71.132172",,,0,
"1647",,"Willard St opp Thistle Rd",,"42.229794","-71.030998",,,0,
"16479",,"Hyde Park Ave @ Neponset Ave",,"42.286316","-71.118599",,,0,
"1648",,"859 Willard St",,"42.227718","-71.031586",,,0,
"1649",,"Granite St @ Wood Rd",,"42.226154","-71.032005",,,0,
"16495",,"Hyde Park Ave opp Patten St",,"42.295067","-71.116943",,,0,
"16498",,"Hyde Park Ave @ Metropolitan Ave",,"42.270477","-71.120682",,,0,
"1650",,"Granite St opp S Shore Plaza",,"42.219822","-71.027557",,,0,
"16500",,"960 American Legion Hwy",,"42.274349","-71.116562",,,0,
"16535",,"Otis St @ Summer St",,"42.354244","-71.058502",,,0,
"16537",,"Essex St @ Kingston St",,"42.352451","-71.059242",,,0,
"16538",,"Bedford St @ Chauncy St",,"42.353275","-71.059639",,,0,
"16539",,"Milk St @ Devonshire St",,"42.35677","-71.057434",,,0,
"16540",,"Franklin St @ Washington St",,"42.356281","-71.059364",,,0,
"16551",,"Congress St @ Franklin St",,"42.355518","-71.055611",,,0,
"1657",,"Mystic St @ Rangely Rd",,"42.420452","-71.153",,,0,
"1658",,"Mystic St @ Farrington St",,"42.421455","-71.153755",,,0,
"1659",,"201 Mystic St",,"42.422245","-71.153801",,,0,
"1660",,"Mystic St @ Davis Ave",,"42.423859","-71.15287",,,0,
"16606",,"Beach Rd @ Surfside Rd",,"42.45755","-70.935806",,,0,
"1661",,"Mystic St @ Beverley Rd",,"42.426434","-71.15197",,,0,
"16616",,"Flash Rd @ Castle Rd",,"42.423439","-70.934769",,,0,
"16618",,"Washington St @ Richards St",,"42.24337","-71.177139",,,0,
"16619",,"Castle Rd @ Range Rd",,"42.421963","-70.934746",,,0,
"1662",,"355 Mystic St",,"42.429375","-71.153152",,,0,
"1663",,"449 Mystic St - Winchester Line",,"42.434586","-71.155357",,,0,
"16642",,"Nahant Rd opp Greenlawn Cemetery",,"42.428078","-70.927467",,,0,
"1665",,"Cambridge St @ Robinson Pk",,"42.43932","-71.152466",,,0,
"16653",,"Market St @ Commuter Rail",,"42.46207","-70.947266",,,0,
"1667",,"65 Cambridge St @ Winchester Boat Club",,"42.442181","-71.152",,,0,
"16683",,"Broadway @ Mayfair St",,"42.490906","-70.958626",,,0,
"1669",,"Cambridge St @ Glen Rd",,"42.444752","-71.152176",,,0,
"167",,"Herald St @ Washington St",,"42.34663","-71.064453",,,0,
"1670",,"Cambridge St @ Church St",,"42.446602","-71.153198",,,0,
"1671",,"125 Cambridge St opp Oneida Rd",,"42.447521","-71.15416",,,0,
"1672",,"Cambridge St @ Foxcroft Rd",,"42.449078","-71.155273",,,0,
"1673",,"Cambridge St @ Wildwood St",,"42.451626","-71.156868",,,0,
"16730",,"323 Walnut St",,"42.480217","-71.006706",,,0,
"16734",,"Walnut St @ Sterling St",,"42.47382","-70.989204",,,0,
"16739",,"Kings Hill Dr @ Castle Rising Ct",,"42.470181","-70.99115",,,0,
"1674",,"Cambridge St @ Pond St",,"42.455879","-71.159508",,,0,
"1675",,"353 Cambridge St",,"42.458069","-71.161232",,,0,
"1676",,"376 Cambridge Rd - Woburn Line",,"42.459652","-71.163635",,,0,
"1677",,"Cambridge Rd @ NE Rehab Hospital",,"42.46093","-71.165771",,,0,
"16773",,"Union St @ Broad St",,"42.46196","-70.944939",,,0,
"1678",,"Cambridge Rd @ Country Club Rd",,"42.46138","-71.168762",,,0,
"1679",,"254 Cambridge Rd",,"42.461391","-71.171196",,,0,
"168",,"Tremont St @ Appleton St",,"42.346714","-71.069115",,,0,
"1680",,"Cambridge Rd opp Parker St",,"42.463497","-71.17392",,,0,
"1681",,"Cambridge Rd @ Crawford Dr",,"42.46521","-71.175407",,,0,
"1682",,"Cambridge Rd @ Litchfield Dr",,"42.466179","-71.176453",,,0,
"1683",,"Cambridge Rd @ Russell St",,"42.467953","-71.178329",,,0,
"1684",,"Cambridge Rd opp Revere Rd",,"42.470573","-71.180054",,,0,
"1685",,"Cambridge Rd @ Surrey Circle",,"42.472866","-71.180397",,,0,
"1686",,"Cambridge Rd @ Locust St",,"42.475552","-71.182137",,,0,
"1687",,"Cambridge Rd @ Bedford Rd",,"42.479942","-71.185204",,,0,
"1688",,"Cambridge St @ Ray Ave",,"42.481361","-71.186615",,,0,
"16881",,"26 Cambridge St @ Cafe Escardrille",,"42.482128","-71.187408",,,0,
"1689",,"Cambridge St opp Lincoln Knoll Ln",,"42.482841","-71.188232",,,0,
"1690",,"Cambridge St @ Wall St",,"42.485687","-71.18988",,,0,
"16901",,"Van De Graff Dr",,"42.483002","-71.197006",,,0,
"1691",,"Cambridge St @ Burlington Mall Rd",,"42.491165","-71.192703",,,0,
"1692",,"76 Cambridge St",,"42.492424","-71.193672",,,0,
"1693",,"Cambridge St @ Birchcrest St",,"42.501183","-71.194778",,,0,
"1694",,"Cambridge St @ Cedarwood Ln",,"42.501801","-71.19503",,,0,
"1695",,"Cambridge St @ Bedford St",,"42.504906","-71.195786",,,0,
"1696",,"Cambridge St @ Olympian Ave",,"42.506409","-71.195702",,,0,
"1697",,"Cambridge St @ Winn St",,"42.510059","-71.199211",,,0,
"16971",,"Cambridge St opp Terry Ave",,"42.510715","-71.2005",,,0,
"1698",,"Cambridge St @ Skilton Ln",,"42.512493","-71.202026",,,0,
"1699",,"Cambridge St @ Pontos Ave",,"42.514999","-71.205009",,,0,
"17",,"Dorchester St @ E 8th St",,"42.332729","-71.051147",,,0,
"17000",,"325 Boylston St",,"42.319439","-71.180977",,,0,
"17001",,"280 Boylston St",,"42.319286","-71.179314",,,0,
"17002",,"Opp 40 Second Ave",,"42.394691","-71.264603",,,0,
"17003",,"293 Second Ave",,"42.388367","-71.26461",,,0,
"17005",,"Bear Hill Rd  opp Second Ave",,"42.387104","-71.265579",,,0,
"17006",,"300 Bear Hill Rd",,"42.386253","-71.265739",,,0,
"17007",,"40 Second Ave  PAR Center",,"42.395481","-71.264282",,,0,
"17008",,"293 Bear Hill Rd",,"42.385967","-71.265099",,,0,
"17009",,"211 Bear Hill Rd",,"42.383171","-71.265457",,,0,
"17011",,"Wyman St @ Winter St",,"42.397114","-71.260826",,,0,
"1706",,"Blue Hill Ave @ Harvard St",,"42.294571","-71.088234",,,0,
"1708",,"Blue Hill Ave @ Paxton St",,"42.292271","-71.088997",,,0,
"1709",,"Blue Hill Ave @ Greenock St",,"42.289654","-71.089874",,,0,
"17091",,"Terminal A",,"42.364403","-71.021484",,,0,
"17093",,"Terminal B Stop 2",,"42.36446","-71.018814",,,0,
"17094",,"Terminals C & D",,"42.367477","-71.018143",,,0,
"17095",,"Terminal E",,"42.370258","-71.020462",,,0,
"17096",,"Congress @ World Trade Center Sta",,"42.348125","-71.042221",,,0,
"171",,"Berkeley St @ Columbus Ave",,"42.348583","-71.071716",,,0,
"1710",,"Blue Hill Ave @ Hansborough St",,"42.288002","-71.090408",,,0,
"17100",,"Dodge St @ Enon St",,"42.5826","-70.884438",,,0,
"17101",,"Opp 22 Enon St",,"42.584702","-70.884575",,,0,
"17102",,"Enon St @ Lakeview Ave",,"42.584625","-70.884682",,,0,
"1711",,"Blue Hill Ave @ Havelock St",,"42.28619","-71.091019",,,0,
"1713",,"Blue Hill Ave @ Goodale Rd",,"42.28244","-71.092278",,,0,
"17130",,"Blue Hill Ave opp Clarkwood St",,"42.280815","-71.092819",,,0,
"1714",,"Blue Hill Ave @ Wellington Hill St",,"42.279549","-71.093246",,,0,
"17142",,"Winter St @ Bridge St",,"42.526543","-70.891029",,,0,
"17143",,"Winter St @ Washingtom St",,"42.524929","-70.889664",,,0,
"17144",,"Hawthorne Blvd @ Essex St",,"42.522575","-70.890579",,,0,
"1715",,"Blue Hill Ave @ Hazelton St",,"42.278526","-71.093582",,,0,
"17150",,"Derby St @ Lafayette St",,"42.519566","-70.893234",,,0,
"17153",,"Hawthorne Blvd @ Derby St",,"42.520855","-70.890083",,,0,
"17154",,"Hawthorne Blvd @ Washington Sq S",,"42.522865","-70.890518",,,0,
"17155",,"Winter St @ Washington St",,"42.525017","-70.889572",,,0,
"17156",,"Winter St @ Bridge St",,"42.526649","-70.890984",,,0,
"1716",,"Blue Hill Ave @ Mattapan St",,"42.276592","-71.093719",,,0,
"17166",,"Cabot St @ Stone St",,"42.542892","-70.883522",,,0,
"1717",,"Blue Hill Ave @ Almont St",,"42.274197","-71.093803",,,0,
"17170",,"Cabot St @ Essex St",,"42.549183","-70.878059",,,0,
"1718",,"Blue Hill Ave @ Woodhaven St",,"42.273163","-71.093819",,,0,
"1719",,"Blue Hill Ave @ Regis Rd",,"42.271542","-71.093857",,,0,
"1720",,"Blue Hill Ave @ Mattapan Sq",,"42.268772","-71.093956",,,0,
"1721",,"Blue Hill Ave @ River St",,"42.26717","-71.093613",,,0,
"1722",,"1624 Blue Hill Ave @ Mattapan Sq",,"42.268818","-71.093521",,,0,
"1723",,"Blue Hill Ave @ Babson St",,"42.270264","-71.093468",,,0,
"1724",,"Blue Hill Ave opp Woodhaven St",,"42.272991","-71.093399",,,0,
"1725",,"1458 Blue Hill Ave opp Almont St",,"42.274933","-71.09333",,,0,
"17255",,"Boston St opp Ford St",,"42.477215","-70.957169",,,0,
"1726",,"Blue Hill Ave @ Norfolk St",,"42.276028","-71.093285",,,0,
"1728",,"Blue Hill Ave @ Wilmore St",,"42.278408","-71.093147",,,0,
"17288",,"Boston @ Ford St",,"42.477009","-70.957146",,,0,
"1729",,"Blue Hill Ave @ Evelyn St",,"42.279999","-71.092621",,,0,
"17291",,"Parkland Ave @ B Street",,"42.478973","-70.970016",,,0,
"173",,"Saint James Ave @ Clarendon St",,"42.349949","-71.074646",,,0,
"1730",,"Blue Hill Ave @ Woolson St",,"42.282288","-71.091866",,,0,
"1731",,"Blue Hill Ave @ Morton St",,"42.284134","-71.091293",,,0,
"17316",,"Chestnut St opp Peach St",,"42.475033","-70.945",,,0,
"1732",,"Blue Hill Ave @ Woodrow Ave",,"42.28553","-71.090797",,,0,
"17325",,"Lynnfield St @ St Marys Cemetery",,"42.489819","-70.968925",,,0,
"1733",,"Blue Hill Ave @ Arbutus St",,"42.287979","-71.089996",,,0,
"1734",,"Blue Hill Ave @ Callender St",,"42.289597","-71.089447",,,0,
"17347",,"Lynnfield St @ Union Hospital",,"42.501266","-70.977951",,,0,
"1735",,"Blue Hill Ave @ Westview St",,"42.291309","-71.08889",,,0,
"17354",,"Lynnfield St @ St Marys Cemetery",,"42.489742","-70.968994",,,0,
"1736",,"Blue Hill Ave opp Health Ctr",,"42.292946","-71.088356",,,0,
"1737",,"Blue Hill Ave @ Talbot Ave",,"42.294643","-71.087799",,,0,
"17370",,"Goodridge St @ Memorial Pk Ave",,"42.476063","-70.946022",,,0,
"1739",,"Seaver St @ Maple St",,"42.306774","-71.087234",,,0,
"17391",,"Seaver St opp Maple St",,"42.306652","-71.087685",,,0,
"174",,"Ring Rd @ Boylston St",,"42.348759","-71.080559",,,0,
"1740",,"Seaver St @ Elm Hill Ave",,"42.307613","-71.088814",,,0,
"17401",,"Seaver St opp Elm Hill Ave",,"42.307529","-71.089264",,,0,
"1741",,"Seaver St @ Humboldt Ave",,"42.309937","-71.091896",,,0,
"17411",,"Seaver St opp Humboldt Ave",,"42.309696","-71.09211",,,0,
"17419",,"Salem St @ Cutler Hwy",,"42.437477","-71.019775",,,0,
"1742",,"Seaver St @ Harold St",,"42.312111","-71.093323",,,0,
"17421",,"Seaver St opp Harold St",,"42.312","-71.093697",,,0,
"17422",,"Salem St opp Franklin",,"42.441536","-71.014679",,,0,
"17429",,"Lincoln Ave @ Charlotte Rd",,"42.448902","-71.006668",,,0,
"1743",,"Columbus Ave @ Walnut Ave",,"42.313549","-71.0951",,,0,
"17449",,"Summer St opp Raddin Grove Ave",,"42.459526","-70.978416",,,0,
"17456",,"81 Central Ave @ Granada Highlands",,"42.438049","-71.0298",,,0,
"17463",,"Central Ave @ Kennedy Dr",,"42.438156","-71.029755",,,0,
"1747",,"Heath St @ VA Hospital",,"42.327335","-71.108467",,,0,
"1749",,"Heath St opp Hayden St",,"42.326771","-71.107056",,,0,
"175",,"Boylston St @ Dartmouth St",,"42.35001","-71.077477",,,0,
"1750",,"Heath St @ Walden St",,"42.325981","-71.104729",,,0,
"1751",,"106 Heath St",,"42.326328","-71.101936",,,0,
"1752",,"Heath St @ Parker St",,"42.326084","-71.100395",,,0,
"1753",,"34 Heath St opp Bromley St",,"42.325275","-71.09964",,,0,
"1755",,"Heath St @ Wensley St",,"42.326466","-71.100403",,,0,
"1756",,"107 Heath St opp Bickford Ave",,"42.326405","-71.102196",,,0,
"17562",,"Essex St opp School St",,"42.451019","-71.015633",,,0,
"1757",,"177 Heath St opp Walden St",,"42.326153","-71.105103",,,0,
"1758",,"Heath St opp Hennigan School",,"42.326401","-71.106224",,,0,
"17591",,"56 Main St",,"42.464485","-71.014587",,,0,
"176",,"Dartmouth St opp Back Bay Sta",,"42.347351","-71.07605",,,0,
"1760",,"Heath St opp VA Hospital",,"42.327442","-71.108459",,,0,
"1761",,"Heath St @ S Huntington Ave",,"42.328651","-71.110275",,,0,
"1764",,"Pearl St @ Cottage St",,"42.36232","-71.10527",,,0,
"17645",,"Washington St @ Lowell St",,"42.351105","-71.21051",,,0,
"1765",,"Pearl St @ Lawrence St",,"42.361187","-71.106514",,,0,
"1766",,"Pearl St @ Erie St",,"42.36058","-71.107193",,,0,
"1767",,"Pearl St @ Allston St",,"42.359097","-71.108788",,,0,
"17670",,"South St opp Old South St",,"42.363071","-71.259834",,,0,
"1768",,"Putnam ave @ Magazine St",,"42.359104","-71.110931",,,0,
"1769",,"Magazine St @ Chestnut St",,"42.358482","-71.111855",,,0,
"177",,"Saint James Ave @ Arlington St",,"42.351051","-71.070503",,,0,
"1770",,"Magazine St @ Riverside Rd",,"42.356964","-71.11351",,,0,
"1771",,"Granite St @ Pearl St",,"42.355869","-71.111916",,,0,
"17711",,"Belmont St  @ Lexington St",,"42.380646","-71.189507",,,0,
"1772",,"Granite St @ Brookline St",,"42.35508","-71.110474",,,0,
"1773",,"Mountfort St @ Lenox St",,"42.349285","-71.109993",,,0,
"1775",,"Park Dr @ Beacon St",,"42.346741","-71.105255",,,0,
"1777",,"Brookline Ave @ Pilgrim Rd",,"42.342663","-71.103432",,,0,
"17774",,"Trapelo Rd @ Kingston Rd",,"42.411583","-71.23587",,,0,
"1778",,"Brookline Ave @ Short St",,"42.340446","-71.105713",,,0,
"1779",,"Longwood Ave @ Brookline Ave",,"42.338802","-71.107162",,,0,
"178",,"Saint James Ave @ Dartmouth St",,"42.349377","-71.076958",,,0,
"1780",,"Longwood Ave @ Blackfan St",,"42.337658","-71.104988",,,0,
"1784",,"Ruggles St @ Huntington Ave",,"42.337429","-71.095078",,,0,
"1785",,"Ruggles St @ Annunciation Rd",,"42.336742","-71.093224",,,0,
"17861",,"Ruggles Sta - upper level",,"42.33569","-71.090553",,,0,
"17862",,"Ruggles Station - Lane 1",,"42.335354","-71.09021",,,0,
"17863",,"Ruggles Station - Lane 2",,"42.335117","-71.090019",,,0,
"1787",,"Washington St @ Worcester St",,"42.337536","-71.075478",,,0,
"17879",,"Springs Rd opp Bldg 23",,"42.502449","-71.272362",,,0,
"1788",,"Washington St @ E Newton St",,"42.338776","-71.073677",,,0,
"1789",,"Washington St @ Mystic St",,"42.340405","-71.071198",,,0,
"179",,"Ring Rd @ Huntington Ave",,"42.347858","-71.08007",,,0,
"1790",,"Harrison Ave @ Worcester Sq",,"42.335896","-71.074013",,,0,
"1791",,"Harrison Ave @ E Lenox St",,"42.333706","-71.076996",,,0,
"17922",,"Massachusetts Ave @ Park Ave",,"42.424267","-71.183128",,,0,
"1793",,"Huntington Ave @ Exeter St",,"42.34798","-71.078728",,,0,
"1798",,"Ruggles St @ Parker St",,"42.337074","-71.093819",,,0,
"1799",,"Ruggles St @ Huntington Ave",,"42.337536","-71.0951",,,0,
"18",,"180 Dorchester St opp W 7th St",,"42.333603","-71.04953",,,0,
"180",,"Bay St @ Auckland St",,"42.31115","-71.056725",,,0,
"1800",,"Louis Prang St @ Evans Way",,"42.338425","-71.097198",,,0,
"1804",,"Brookline Ave @ Longwood Ave",,"42.33902","-71.107117",,,0,
"1805",,"Brookline Ave opp Short St",,"42.340443","-71.105568",,,0,
"1806",,"Brookline Ave @ The Fenway",,"42.34264","-71.103287",,,0,
"1807",,"Park Dr @ Fenway Station",,"42.345226","-71.104263",,,0,
"1808",,"Park Dr @ Beacon St",,"42.347115","-71.105194",,,0,
"1809",,"Park Dr @ Mountfort St",,"42.348347","-71.105843",,,0,
"1810",,"Commonwealth Ave @ University Rd",,"42.350613","-71.109848",,,0,
"1811",,"Brookline St @ Granite St",,"42.355267","-71.110123",,,0,
"1812",,"Brookline St @ Putnam Ave",,"42.357452","-71.107841",,,0,
"1813",,"Brookline St @ Erie St",,"42.35923","-71.10598",,,0,
"1814",,"Brookline St @ Tudor St",,"42.360786","-71.10434",,,0,
"18144",,"Webster St opp Elder Rd",,"42.303932","-71.235573",,,0,
"1815",,"Brookline St @ Auburn St",,"42.362206","-71.102974",,,0,
"1816",,"Brookline St @ Green St",,"42.363316","-71.101944",,,0,
"1817",,"Pearl St @ Franklin St",,"42.363762","-71.103683",,,0,
"18239",,"Cambridge St @ Arlington Rd",,"42.493896","-71.194412",,,0,
"18241",,"Burlington Mall @ Macys",,"42.48193","-71.212486",,,0,
"18244",,"Cambridge Rd @ Sylvanus Wood Ln",,"42.476898","-71.183502",,,0,
"18245",,"Burlington Mall Rd @ NE Executive Pk",,"42.485706","-71.211891",,,0,
"18246",,"Burlington Mall Rd @ Lahey Clinic Main Entrance",,"42.486046","-71.207542",,,0,
"18247",,"Burlington Mall Rd @ Lahey Clinic 2",,"42.486809","-71.20472",,,0,
"18248",,"Burlington Mall Rd @ S Bedford St",,"42.488064","-71.201675",,,0,
"18249",,"Burlington Mall Rd @ Marriot Hotel",,"42.490631","-71.196907",,,0,
"18251",,"S Bedford St @ Kimball Ave",,"42.487247","-71.199615",,,0,
"18253",,"Van De Graaff Dr @ Wayside Rd",,"42.483749","-71.194305",,,0,
"18272",,"Mystic St @ Ridge St",,"42.422199","-71.154045",,,0,
"183",,"Dorchester Ave @ Fuller St",,"42.2841","-71.064827",,,0,
"18332",,"Readville St @ Chesterfield St",,"42.241142","-71.135078",,,0,
"18335",,"Main St @ Grant St",,"42.376331","-71.241638",,,0,
"18338",,"Kennedy Dr @ Granada Highlands - Bldg 142",,"42.437424","-71.030441",,,0,
"18351",,"Sohier Rd @ Tozer Rd",,"42.56702","-70.878922",,,0,
"1836",,"Independece Dr opp shopping mall",,"42.295811","-71.157776",,,0,
"1838",,"Opp 650 VFW Pkwy",,"42.295437","-71.158714",,,0,
"1839",,"VFW Pkwy @ Corey St",,"42.29356","-71.162567",,,0,
"1840",,"310 Corey St",,"42.292957","-71.162186",,,0,
"1841",,"Corey St @ Weld St",,"42.291634","-71.160744",,,0,
"1842",,"Weld St @ Ruskin St",,"42.291782","-71.158539",,,0,
"1843",,"Weld St @ Maple St",,"42.291538","-71.157417",,,0,
"1844",,"Weld St @ Willow St",,"42.292183","-71.155464",,,0,
"1845",,"Weld St @ Manthorne Rd",,"42.292881","-71.154373",,,0,
"1846",,"Weld St @ Russett Rd",,"42.29298","-71.152283",,,0,
"1847",,"Weld St @ Church St",,"42.293018","-71.149475",,,0,
"1848",,"Weld St @ W Roxbury Pkwy",,"42.293709","-71.146172",,,0,
"1849",,"Weld St @ Burnside Ave",,"42.293278","-71.144646",,,0,
"185",,"Mattapan Station",,"42.267712","-71.092453",,,0,
"1850",,"Weld St @ Ravena Rd",,"42.293087","-71.143204",,,0,
"1851",,"Weld St @ Cerdan Ave",,"42.293549","-71.14003",,,0,
"1852",,"Weld St @ Colby Rd",,"42.293682","-71.138855",,,0,
"1853",,"Weld St @ Centre St",,"42.29446","-71.135666",,,0,
"18542",,"Dedham St opp Rosalie Rd",,"42.302048","-71.19001",,,0,
"1856",,"170 Walter St",,"42.294743","-71.130562",,,0,
"1857",,"144 Walter St opp Mendum St",,"42.292603","-71.130539",,,0,
"1858",,"112 Walter St opp Cotton St",,"42.291866","-71.130753",,,0,
"18581",,"Walter St @ Coniston Rd",,"42.291298","-71.131783",,,0,
"1859",,"Walter St @ Sheffield St",,"42.289761","-71.133453",,,0,
"1860",,"Walter St @ Hewlett St",,"42.288979","-71.134178",,,0,
"18618",,"Washington St @ Sylvia Ln",,"42.238873","-71.180992",,,0,
"18636",,"1666 Massachusetts Ave",,"42.446529","-71.224945",,,0,
"1867",,"Robert St @ Belgrade Ave",,"42.286865","-71.131111",,,0,
"1869",,"31 Walter St opp Sheffield St",,"42.289761","-71.133301",,,0,
"18691",,"Walter St @ Ashfield St",,"42.291054","-71.132034",,,0,
"187",,"Massachusetts Ave @ Massachusetts Ave Station",,"42.341629","-71.083435",,,0,
"1870",,"Walter St @ Cotton St",,"42.291859","-71.1306",,,0,
"1871",,"Walter St @ Mendum St",,"42.292656","-71.130409",,,0,
"1872",,"Opp 174 Walter St",,"42.294773","-71.130417",,,0,
"1875",,"Weld St @ Centre St",,"42.294556","-71.135674",,,0,
"1876",,"Weld St @ Alward Rd",,"42.293755","-71.139008",,,0,
"1877",,"Weld St @ Morey St",,"42.29364","-71.140099",,,0,
"1878",,"Weld St @ Gretter St",,"42.293152","-71.143433",,,0,
"1879",,"Weld St @ Lantern Ln",,"42.293297","-71.144279",,,0,
"188",,"Massachusetts Ave @ Massachusetts Ave Station",,"42.341583","-71.082985",,,0,
"1880",,"Weld St @ W Roxbury Pkwy",,"42.29372","-71.145897",,,0,
"1881",,"Weld St @ Church St",,"42.293163","-71.149284",,,0,
"1882",,"Weld St @ Russet Rd",,"42.293049","-71.152184",,,0,
"1883",,"Weld St @ Manthorne Rd",,"42.293056","-71.154236",,,0,
"1884",,"Weld St @ Willow St",,"42.29221","-71.155609",,,0,
"1885",,"Weld St @ Maple St",,"42.291584","-71.157158",,,0,
"1886",,"Weld St @ Avalon Rd",,"42.291878","-71.158546",,,0,
"1887",,"Weld St @ Corey St",,"42.291653","-71.16053",,,0,
"1888",,"Corey St @ VFW Pkwy",,"42.293362","-71.162308",,,0,
"1889",,"650 VFW Pkwy",,"42.295177","-71.158585",,,0,
"1890",,"286 Independence Dr",,"42.296959","-71.157631",,,0,
"1891",,"Independence Dr @ Thornton Rd",,"42.298176","-71.156898",,,0,
"1892",,"Independence Dr opp Gerry Rd",,"42.299809","-71.155449",,,0,
"18924",,"404 Wyman St",,"42.406963","-71.256706",,,0,
"18925",,"Opp 175 Wyman St",,"42.402042","-71.258987",,,0,
"18926",,"Wyman St @ Winter St",,"42.397175","-71.260437",,,0,
"18928",,"Totten Pond Rd @ Third Ave",,"42.396889","-71.259293",,,0,
"18929",,"Totten Pond Rd @ Craig Ln",,"42.395466","-71.248276",,,0,
"1893",,"Grove St @ Russet Rd",,"42.301151","-71.153915",,,0,
"18930",,"Totten Pond Rd @ Rando Ln",,"42.391392","-71.24247",,,0,
"18931",,"400 Totten Pond Rd",,"42.397461","-71.253128",,,0,
"18932",,"440 Totten Pond Rd",,"42.397232","-71.251373",,,0,
"1895",,"Grove St @ South St",,"42.302635","-71.152107",,,0,
"18974",,"River St @ Milton St",,"42.242352","-71.147217",,,0,
"18975",,"River St @ Milton St",,"42.242374","-71.147705",,,0,
"19",,"Dorchester St @ Old Harbor St",,"42.334507","-71.047577",,,0,
"190",,"Congress St @ State St",,"42.358803","-71.056732",,,0,
"1900",,"Centre St @ Pearl St",,"42.358475","-71.185013",,,0,
"19073",,"Franklin St @ Vinton St",,"42.468697","-71.071663",,,0,
"191",,"Congress St @ North St",,"42.360401","-71.057129",,,0,
"19182",,"Main St @ North St",,"42.497849","-71.069305",,,0,
"192",,"Congress St @ Hanover St",,"42.361496","-71.057533",,,0,
"1920",,"Ipswich St @ Charlesgate E",,"42.347546","-71.09182",,,0,
"19201",,"Cambridge St opp Elko St",,"42.349323","-71.149071",,,0,
"19208",,"Main St @ Pine Banks Park",,"42.440918","-71.068016",,,0,
"1921",,"Ipswich St @ Lansdowne St",,"42.347248","-71.094368",,,0,
"19215",,"Florence St @ Ramsdell Rd",,"42.428696","-71.067963",,,0,
"1922",,"Ipswich St @ Boylston St",,"42.345299","-71.095428",,,0,
"1923",,"Boylston St @ Jersey St",,"42.344635","-71.097778",,,0,
"1924",,"Kilmarnock St @ Peterborough St",,"42.343178","-71.099663",,,0,
"1925",,"Kilmarnock St @ Queensberry St",,"42.342331","-71.099289",,,0,
"19253",,"Woburn St @ Lowell St - Reading Sq",,"42.524967","-71.102982",,,0,
"1926",,"Queensberry St @ Jersey St",,"42.342781","-71.097115",,,0,
"1927",,"Jersey St @ Boylston",,"42.34449","-71.097763",,,0,
"1928",,"Ipswich St @ Boylston St",,"42.34539","-71.095337",,,0,
"1929",,"Ipswich St @ Lansdowne St",,"42.347233","-71.094215",,,0,
"1930",,"Ipswich St @ Charlesgate  E",,"42.347454","-71.091263",,,0,
"1931",,"Ipswich St @ Boylston St",,"42.346958","-71.089363",,,0,
"1932",,"Boylston St @ Saint Cecilia St",,"42.347481","-71.086891",,,0,
"1935",,"South St @ St Mark St",,"42.302483","-71.114418",,,0,
"1936",,"South St @ Rosemary St",,"42.304138","-71.114647",,,0,
"1937",,"South St @ Child St",,"42.306561","-71.115143",,,0,
"1938",,"South St @ Carolina Ave",,"42.307816","-71.115456",,,0,
"1939",,"775 Centre St",,"42.309963","-71.115341",,,0,
"1940",,"Centre St @ Aldworth St",,"42.308811","-71.11866",,,0,
"19402",,"Washington St @ W Newton St",,"42.338802","-71.073822",,,0,
"1941",,"Centre St @ Orchard St",,"42.30899","-71.120003",,,0,
"19573",,"Pleasant St opp Frances St",,"42.449303","-71.070526",,,0,
"19618",,"Washington St @ Harmony Hill Way",,"42.234581","-71.183365",,,0,
"1965",,"Boylston St @ Star Market - Service Rd",,"42.323044","-71.166176",,,0,
"1966",,"Chestnut Hill Shopping Ctr @ AMC Theaters",,"42.322231","-71.169373",,,0,
"19661",,"The Mall at Chestnut H@ Bloomingdales",,"42.323589","-71.176674",,,0,
"19666",,"Chestnut Hill Shopping Ctr @ Macy's",,"42.321926","-71.170418",,,0,
"19821",,"Boylston St @ Tully St",,"42.322338","-71.167625",,,0,
"1984",,"Boylston St @ Hammond St",,"42.323288","-71.163979",,,0,
"1994",,"Winship St @ Union St",,"42.346203","-71.152451",,,0,
"2",,"Washington St @ Melnea Cass Blvd",,"42.332745","-71.081062",,,0,
"20",,"Dorchester St @ E Broadway",,"42.335392","-71.045723",,,0,
"20009",,"Massachusetts Ave @ Pierson St",,"42.329594","-71.06926",,,0,
"2002",,"Centre St @ Arborway",,"42.308964","-71.120575",,,0,
"2003",,"Centre St @ Ballard St",,"42.308739","-71.118111",,,0,
"2005",,"South St @ Custer St",,"42.307751","-71.115578",,,0,
"2006",,"South St @ Jamaica St",,"42.306145","-71.115089",,,0,
"2007",,"South St @ St Rose St",,"42.304409","-71.114769",,,0,
"2008",,"South St @ Arborway",,"42.302414","-71.114532",,,0,
"2020",,"Mt Auburn St @ Story St",,"42.373528","-71.123268",,,0,
"2021",,"Mt Auburn St @ Ash St",,"42.374371","-71.125626",,,0,
"2022",,"Mt Auburn St @ Willard St",,"42.374607","-71.128304",,,0,
"2023",,"Mt Auburn St @ Sparks St",,"42.374741","-71.130455",,,0,
"2025",,"Mt Auburn St @ Longfellow Rd",,"42.37495","-71.133865",,,0,
"2026",,"Mt Auburn St @ Traill St",,"42.375088","-71.136642",,,0,
"2027",,"Mt Auburn St @ Lowell Pk",,"42.374962","-71.139587",,,0,
"2028",,"Mt Auburn St @ Brattle St",,"42.375412","-71.143944",,,0,
"2029",,"Mt Auburn St @ Aberdeen Ave",,"42.375332","-71.145607",,,0,
"2030",,"Mt Auburn St @ Homer Ave",,"42.374981","-71.148224",,,0,
"2031",,"818 Mt Auburn St",,"42.374538","-71.150261",,,0,
"2032",,"Mt Auburn St @ Saint Marys St",,"42.373806","-71.152534",,,0,
"2033",,"Mt Auburn St @ Keenan St",,"42.372814","-71.15509",,,0,
"2034",,"Mt Auburn St @ Kimball Rd",,"42.371479","-71.157761",,,0,
"2035",,"Mt Auburn St @ Lloyd Rd",,"42.37067","-71.158897",,,0,
"2036",,"Mt Auburn St @ Upland Rd",,"42.370411","-71.160614",,,0,
"2037",,"Mt Auburn St @ Winsor Ave",,"42.370922","-71.163971",,,0,
"2038",,"Mt Auburn St @ Adams Ave",,"42.37006","-71.166809",,,0,
"2039",,"Mt Auburn St @ Oakley Rd",,"42.370079","-71.168976",,,0,
"2040",,"Mt Auburn St @ Amherst Rd",,"42.370106","-71.171005",,,0,
"2041",,"Mt Auburn St @ Bailey Rd",,"42.369709","-71.172478",,,0,
"2042",,"Mt Auburn St @ Russell Ave",,"42.368462","-71.176353",,,0,
"2043",,"Mt Auburn St @ Marshall St",,"42.367931","-71.179008",,,0,
"2044",,"Mt Auburn St @ Summer St",,"42.366623","-71.18132",,,0,
"2046",,"Mt Auburn St @ Main St",,"42.365368","-71.184189",,,0,
"2047",,"Mt Auburn St @ Bates Rd E",,"42.368916","-71.174431",,,0,
"2048",,"Mt Auburn St @ Main St",,"42.365501","-71.183731",,,0,
"2049",,"Mt Auburn St @ Patten St",,"42.366581","-71.181183",,,0,
"2050",,"Mt Auburn St @ Parker St",,"42.36795","-71.178734",,,0,
"2051",,"Mt Auburn St  @ Franklin St",,"42.368397","-71.176094",,,0,
"2052",,"Mt Auburn St @ Walnut St",,"42.369011","-71.173927",,,0,
"2053",,"Mt Auburn St @ Lincoln St",,"42.369514","-71.172699",,,0,
"2054",,"Mt Auburn St @ Boylston St",,"42.370014","-71.170731",,,0,
"2055",,"Mt Auburn St opp Oakley Rd",,"42.369987","-71.168892",,,0,
"2056",,"Mt Auburn St @ Chauncy St",,"42.369953","-71.167046",,,0,
"2057",,"Mt Auburn St @ School St",,"42.370636","-71.164818",,,0,
"2058",,"Mt Auburn St @ Adams St",,"42.370415","-71.161446",,,0,
"2060",,"Mt Auburn St @ Bigelow Ave",,"42.371201","-71.157951",,,0,
"2061",,"Mt Auburn St opp Keenan St",,"42.372879","-71.154671",,,0,
"20618",,"Washington St opp Holiday Inn",,"42.231522","-71.184959",,,0,
"20619",,"Washington St @ Gay St",,"42.228657","-71.186134",,,0,
"2062",,"Mt Auburn St @ Ralph Piteri Terr",,"42.373798","-71.152229",,,0,
"20620",,"Washington St opp Waldo Way",,"42.222305","-71.187523",,,0,
"2064",,"Mt Auburn St opp Homer Ave",,"42.374901","-71.148117",,,0,
"2065",,"Mt Auburn St @ Aberdeen Ave",,"42.375252","-71.145462",,,0,
"2066",,"Mt Auburn St opp Brattle St",,"42.37532","-71.14386",,,0,
"2067",,"Mt Auburn St @ Coolidge Ave",,"42.374912","-71.139854",,,0,
"2068",,"Mt Auburn St opp Traill St",,"42.375","-71.136551",,,0,
"2070",,"Mt Auburn St @ Mt Auburn Hospital",,"42.374798","-71.132858",,,0,
"2071",,"Mt Auburn St opp Sparks St",,"42.374668","-71.130791",,,0,
"2072",,"Mt Auburn St opp Willard St",,"42.374512","-71.128235",,,0,
"2073",,"Mt Auburn St @ Brewer St",,"42.37397","-71.124748",,,0,
"2074",,"114 Mt Auburn St",,"42.373257","-71.122818",,,0,
"2076",,"Harvard Lower Busway @ Red Line",,"42.374119","-71.119034",,,0,
"20761",,"Harvard Upper Busway @ Red Line",,"42.373905","-71.118782",,,0,
"2077",,"Aberdeen Ave @ Mt Auburn St",,"42.375557","-71.145767",,,0,
"2078",,"61 Aberdeen Ave",,"42.37656","-71.146202",,,0,
"2079",,"Aberdeen Ave @ Huron Ave",,"42.378342","-71.147049",,,0,
"208",,"Summer St @ Powerhouse St",,"42.339977","-71.035614",,,0,
"2080",,"Huron Ave @ Larch Rd",,"42.380184","-71.1436",,,0,
"2081",,"Huron Ave @ Lexington Ave",,"42.380619","-71.141365",,,0,
"2082",,"Huron Ave @ Lake View Ave",,"42.380863","-71.140114",,,0,
"2083",,"Huron Ave @ Gurney St",,"42.38121","-71.137924",,,0,
"2084",,"Huron Ave @ Reservoir St",,"42.381363","-71.13591",,,0,
"2085",,"Huron Ave @ Appleton St",,"42.381382","-71.133179",,,0,
"2086",,"Huron Ave @ Concord Ave",,"42.382313","-71.131065",,,0,
"209",,"776 Summer St opp Powerhouse St",,"42.340042","-71.035492",,,0,
"2090",,"Huron Ave @ Vassal Ln",,"42.381565","-71.134628",,,0,
"2091",,"Huron Ave @ Reservoir St",,"42.381447","-71.136009",,,0,
"2092",,"Huron Ave @ Fayerweather St",,"42.381336","-71.137527",,,0,
"2093",,"Huron Ave @ Lake View Ave",,"42.380939","-71.140221",,,0,
"2094",,"Huron Ave @ Lexington Ave",,"42.380695","-71.141472",,,0,
"2095",,"Huron Ave @ Larch Rd",,"42.380257","-71.143715",,,0,
"2096",,"Aberdeen Ave @ Huron Ave",,"42.378582","-71.14743",,,0,
"2097",,"Opp 61 Aberdeen Ave",,"42.376694","-71.146629",,,0,
"2098",,"Aberdeen Ave @ Mt Auburn St",,"42.37532","-71.146027",,,0,
"2099",,"Trapelo Rd @ Church St",,"42.387508","-71.189919",,,0,
"21",,"E Broadway @ G St",,"42.335423","-71.044388",,,0,
"210",,"Summer St @ Dry Dock Ave",,"42.344395","-71.039017",,,0,
"2100",,"Trapelo Rd @ White St",,"42.387169","-71.188698",,,0,
"2101",,"Trapelo Rd @ Sycamore St",,"42.386497","-71.186668",,,0,
"2102",,"Trapelo Rd @ Beech St",,"42.385448","-71.183762",,,0,
"2103",,"Trapelo Rd @ Walnut St",,"42.384567","-71.182449",,,0,
"2104",,"Trapelo Rd @ Bartlett Ave",,"42.382515","-71.180168",,,0,
"2105",,"Trapelo Rd @ Poplar St",,"42.381596","-71.177826",,,0,
"2106",,"Trapelo Rd @ Common St - Cushing Square",,"42.380535","-71.174744",,,0,
"2107",,"36 Trapelo Rd",,"42.379097","-71.171989",,,0,
"2108",,"Trapelo Rd @ Belmont St - Benton Square",,"42.377728","-71.169579",,,0,
"2109",,"395 Belmont St",,"42.377468","-71.168198",,,0,
"2110",,"Belmont St opp Payson St",,"42.377171","-71.16629",,,0,
"2111",,"Belmont St @ Carver Rd",,"42.376949","-71.16465",,,0,
"21111",,"Perimeter Rd @ JFK Library",,"42.314426","-71.036377",,,0,
"2112",,"Belmont St @ Winsor Ave",,"42.376831","-71.163162",,,0,
"2113",,"Belmont St @ Woodleigh Rd",,"42.376587","-71.160332",,,0,
"21134",,"Paul Gore St @ Chestnut Ave",,"42.318413","-71.105949",,,0,
"2114",,"Belmont St @ Templeton Pkwy",,"42.376183","-71.158676",,,0,
"21148",,"Malcolm X Blvd @ Tremont St",,"42.331367","-71.093674",,,0,
"2115",,"Belmont St @ Prentiss St",,"42.375542","-71.156578",,,0,
"21151",,"Warren St @ Kearsage Ave",,"42.327362","-71.083023",,,0,
"21158",,"Harrison Ave. opp Plympton St",,"42.339867","-71.069092",,,0,
"2116",,"Purchase St @ Pearl St",,"42.354603","-71.053276",,,0,
"2117",,"Belmont St opp Cushing St",,"42.374836","-71.151443",,,0,
"21171",,"Belmont @ Brimmer St",,"42.375134","-71.15477",,,0,
"2118",,"Belmont St @ Cushing St",,"42.374939","-71.151512",,,0,
"21187",,"Washington St @ Montebello Rd",,"42.312572","-71.101555",,,0,
"2119",,"Belmont St @ Sullivan Rd",,"42.375179","-71.154037",,,0,
"212",,"Summer St @ D St",,"42.346359","-71.042252",,,0,
"2120",,"Belmont St @ Oxford Ave",,"42.375637","-71.156548",,,0,
"2121",,"Belmont St @ Marion Rd",,"42.376163","-71.158234",,,0,
"2122",,"Belmont St @ Falmouth St",,"42.37677","-71.160721",,,0,
"2123",,"Belmont St @ School St",,"42.37693","-71.163246",,,0,
"2124",,"Belmont St @ Payson Rd",,"42.377274","-71.166351",,,0,
"2125",,"Belmont St @ Oakley Rd",,"42.377754","-71.169304",,,0,
"2126",,"Trapelo Rd @ Oak Ave",,"42.379055","-71.171715",,,0,
"2127",,"Trapelo Rd @ Common St - Cushing Square",,"42.380463","-71.174362",,,0,
"2128",,"Trapelo Rd opp Poplar St",,"42.381786","-71.178162",,,0,
"2129",,"Trapelo Rd @ Slade St",,"42.382626","-71.180138",,,0,
"2130",,"Trapelo Rd opp Walnut St",,"42.38467","-71.182404",,,0,
"2131",,"Trapelo Rd @ Beech St",,"42.38567","-71.184074",,,0,
"21317",,"Huntington Ave @ Wigglesworth St",,"42.334789","-71.102661",,,0,
"2132",,"Trapleo Rd @ Hawthorne St",,"42.386501","-71.186394",,,0,
"21320",,"Tremont St @ Burney St",,"42.332138","-71.099007",,,0,
"2133",,"Trapelo Rd @ Waverley St",,"42.387104","-71.18811",,,0,
"2134",,"Church St @ Lexington St",,"42.387207","-71.190605",,,0,
"2135",,"Leonard St @ Alexander Ave",,"42.398438","-71.17437",,,0,
"2136",,"Leonard St @ Moore St - Belmont Center Sta",,"42.396954","-71.175743",,,0,
"21365",,"S Huntington Ave @ Huntingtson Ave",,"42.331799","-71.112061",,,0,
"2137",,"Concord Ave @ Leonard St",,"42.395611","-71.175125",,,0,
"2138",,"Opp 385 Concord Ave",,"42.394901","-71.172722",,,0,
"2139",,"Concord Ave @ Cottage St",,"42.394348","-71.170815",,,0,
"214",,"Seaport Blvd @ World Trade Center Opp. Seaport Htl",,"42.349937","-71.041344",,,0,
"2140",,"Concord Ave @ Myrtle St",,"42.393909","-71.169449",,,0,
"2141",,"Concord Ave @ Orchard St",,"42.393219","-71.167091",,,0,
"21411",,"Winthrop St @ Chester Ave",,"42.413414","-71.120445",,,0,
