"stop_id","stop_code","stop_name","stop_desc","stop_lat","stop_lon","zone_id","stop_url","location_type","parent_station"
"place-alfcl","","Alewife Station","","42.395428","-71.142483","","",1,""
"place-andrw","","Andrew Station","","42.330154","-71.057655","","",1,""
"place-aport","","Airport Station","","42.374262","-71.030395","","",1,""
"place-aqucl","","Aquarium Station","","42.359784","-71.051652","","",1,""
"place-armnl","","Arlington Station","","42.351902","-71.070893","","",1,""
"place-asmnl","","Ashmont Station","","42.284652","-71.064489","","",1,""
"place-bbsta","","Back Bay Station","","42.34735","-71.075727","","",1,""
"place-bmmnl","","Beachmont Station","","42.39754234","-70.99231944","","",1,""
"place-bomnl","","Bowdoin Station","","42.361365","-71.062037","","",1,""
"place-brdwy","","Broadway Station","","42.342622","-71.056967","","",1,""
"place-brmnl","","Brigham Circle Station","","42.334229","-71.104609","","",1,""
"place-brntn","","Braintree Station","","42.2078543","-71.0011385","","",1,""
"place-bvmnl","","Brookline Village Station","","42.332774","-71.116296","","",1,""
"place-ccmnl","","Community College Station","","42.373622","-71.069533","","",1,""
"place-chmnl","","Charles/MGH Station","","42.361166","-71.070628","","",1,""
"place-chncl","","Chinatown Station","","42.352547","-71.062752","","",1,""
"place-clmnl","","Cleveland Circle Station","","42.336142","-71.149326","","",1,""
"place-cntsq","","Central Square Station","","42.365486","-71.103802","","",1,""
"place-coecl","","Copley Station","","42.349974","-71.077447","","",1,""
"place-davis","","Davis Station","","42.39674","-71.121815","","",1,""
"place-dwnxg","","Downtown Crossing Station","","42.355518","-71.060225","","",1,""
"place-fldcr","","Fields Corner Station","","42.300093","-71.061667","","",1,""
"place-forhl","","Forest Hills Station","","42.300523","-71.113686","","",1,""
"place-gover","","Government Center Station","","42.359705","-71.059215","","",1,""
"place-grnst","","Green St. Station","","42.310525","-71.107414","","",1,""
"place-haecl","","Haymarket Station","","42.363021","-71.05829","","",1,""
"place-harsq","","Harvard Square Station","","42.373362","-71.118956","","",1,""
"place-hsmnl","","Heath St. Station","","42.328681","-71.110559","","",1,""
"place-hymnl","","Hynes Convention Center Station","","42.347888","-71.087903","","",1,""
"place-jaksn","","Jackson Square Station","","42.323132","-71.099592","","",1,""
"place-jfkred","","JFK/UMass Station","","42.320685","-71.052391","","",1,""
"place-kencl","","Kenmore Station","","42.348949","-71.095169","","",1,""
"place-knncl","","Kendall/MIT Station","","42.36249079","-71.08617653","","",1,""
"place-lake","","Boston College Station","","42.340081","-71.166769","","",1,""
"place-lech","","Lechmere Station","","42.370772","-71.076536","","",1,""
"place-masta","","Massachusetts Ave. Station","","42.341512","-71.083423","","",1,""
"place-matt","","Mattapan Station","","42.267762","-71.092241","","",1,""
"place-mlmnl","","Malden Center Station","","42.426632","-71.07411","","",1,""
"place-mvbcl","","Maverick Station","","42.36911856","-71.03952958","","",1,""
"place-nemnl","","Tufts Medical Center Station","","42.349662","-71.063917","","",1,""
"place-north","","North Station","","42.365577","-71.06129","","",1,""
"place-nqncy","","North Quincy Station","","42.275275","-71.029583","","",1,""
"place-ogmnl","","Oak Grove Station","","42.43668","-71.071097","","",1,""
"place-orhte","","Orient Heights Station","","42.386867","-71.004736","","",1,""
"place-pktrm","","Park St. Station","","42.35639457","-71.0624242","","",1,""
"place-portr","","Porter Square Station","","42.3884","-71.119149","","",1,""
"place-prmnl","","Prudential Station","","42.34557","-71.081696","","",1,""
"place-qamnl","","Quincy Adams Station","","42.233391","-71.007153","","",1,""
"place-qnctr","","Quincy Center Station","","42.251809","-71.005409","","",1,""
"place-rbmnl","","Revere Beach Station","","42.40784254","-70.99253321","","",1,""
"place-rcmnl","","Roxbury Crossing Station","","42.331397","-71.095451","","",1,""
"place-river","","Riverside Station","","42.337059","-71.251742","","",1,""
"place-rsmnl","","Reservoir Station","","42.335027","-71.148952","","",1,""
"place-rugg","","Ruggles Station","","42.336377","-71.088961","","",1,""
"place-sbmnl","","Stony Brook Station","","42.317062","-71.104248","","",1,""
"place-sdmnl","","Suffolk Downs Station","","42.39050067","-70.99712259","","",1,""
"place-shmnl","","Savin Hill Station","","42.31129","-71.053331","","",1,""
"place-smmnl","","Shawmut Station","","42.29312583","-71.06573796","","",1,""
"place-spmnl","","Science Park Station","","42.366664","-71.067666","","",1,""
"place-sstat","","South Station","","42.352271","-71.055242","","",1,""
"place-state","","State St. Station","","42.358978","-71.057598","","",1,""
"place-sull","","Sullivan Station","","42.383975","-71.076994","","",1,""
"place-symcl","","Symphony Station","","42.342687","-71.085056","","",1,""
"place-welln","","Wellington Station","","42.40237","-71.077082","","",1,""
"place-wimnl","","Wood Island Station","","42.3796403","-71.02286539","","",1,""
"place-wlsta","","Wollaston Station","","42.2665139","-71.0203369","","",1,""
"place-wondl","","Wonderland Station","","42.41342","-70.991648","","",1,""
"1","1","Washington St opp Ruggles St",,"42.330971","-71.082748",,,,
"10","10","Theo Glynn Way @ Newmarket Sq",,"42.330883","-71.06842",,,,
"100","100","Massachusetts Ave @ Front St",,"42.361904","-71.097649",,,,
"10000","10000","Tremont St opp Winter St",,"42.35639457","-71.0624242",,,,"place-pktrm"
"10003","10003","Albany St opp Randall St",,"42.331604","-71.076233",,,,
"10004","10004","Albany St opp Northampton St",,"42.332752","-71.074402",,,,
"10005","10005","Albany St opp E Concord St",,"42.33503","-71.071281",,,,
"10006","10006","Albany St opp E Newton St",,"42.335827","-71.070137",,,,
"10007","10007","540 Albany St opp Wareham St",,"42.338387","-71.066551",,,,
"10008","10008","Albany St opp Randolph St",,"42.340424","-71.063774",,,,
"10009","10009","High St @ Duck Lane",,"42.214886","-70.915894",,,,
"1001","1001","Newton St @ Arlington Rd",,"42.307674","-71.169518",,,,
"10010","10010","Southampton St @ Newmarket St",,"42.330959","-71.064621",,,,
"10011","10011","Albany St @ Randolph St",,"42.340485","-71.063873",,,,
"10012","10012","Albany St @ Wareham St",,"42.338375","-71.066666",,,,
"10013","10013","Albany St @  E Dedham St",,"42.33757","-71.067871",,,,
"10014","10014","Albany St opp Boston Medical",,"42.334354","-71.07222",,,,
"10015","10015","Harrison Ave @ E Newton St",,"42.337414","-71.072159",,,,
"10016","10016","TradeCenter 128",,"42.499176","-71.161682",,,,
"1003","1003","Firehouse @ Long Island",,"42.324341","-70.963371",,,,
"10031","10031","E 1st St @ P St",,"42.338322","-71.02713",,,,
"10032","10032","E 1st St opp O St",,"42.338287","-71.029205",,,,
"10033","10033","E 1st St @ O St",,"42.338188","-71.029442",,,,
"10099","10099","Albany St @ Northampton St",,"42.333035","-71.074226",,,,
"101","101","Massachusetts Ave @ Main St",,"42.36367","-71.100594",,,,
"10100","10100","Albany St @ Melnea Cass Blvd",,"42.331314","-71.076889",,,,
"10101","10101","Melnea Cass Blvd @ Harrison Ave",,"42.332043","-71.079239",,,,
"10134","10134","Massachusetts Ave @ NStar",,"42.324875","-71.065376",,,,
"102","102","Massachusetts Ave @ Prospect St",,"42.365486","-71.103802",,,,"place-cntsq"
"1026","1026","Chestnut Hill Ave @ Veronica Smith Ctr",,"42.347706","-71.153923",,,,
"1027","1027","Chestnut Hill Ave @ Englewood Ave",,"42.337143","-71.152069",,,,
"1028","1028","Chestnut Hill Ave @ Commonwealth Ave",,"42.338001","-71.153061",,,,
"1029","1029","Chestnut Hill Ave @ Commonwealth Ave",,"42.338326","-71.15345",,,,
"1030","1030","Chestnut Hill Ave @ Strathmore Rd",,"42.340298","-71.155258",,,,
"1031","1031","Chestnut Hill Ave @ Chiswick Rd",,"42.34111","-71.154739",,,,
"1032","1032","Chestnut Hill Ave opp Wiltshire Rd",,"42.343079","-71.153465",,,,
"1033","1033","Chestnut Hill Ave @ Wallingford Rd",,"42.34462","-71.153221",,,,
"1034","1034","Chestnut Hill Ave @ Union St",,"42.346138","-71.152992",,,,
"1035","1035","Market St @ Washington St",,"42.349274","-71.153305",,,,
"1036","1036","Market St @ Sparhawk St",,"42.35154","-71.151917",,,,
"1037","1037","Market St @ Morrow Rd",,"42.353786","-71.150528",,,,
"1038","1038","Market St @ Cypress Rd",,"42.354568","-71.150024",,,,
"1039","1039","Market St @ N Beacon St",,"42.356049","-71.149078",,,,
"104","104","Massachusetts Ave @ Bigelow St",,"42.366997","-71.106178",,,,
"1040","1040","Market St @ Guest St",,"42.357327","-71.148285",,,,
"1041","1041","Market St @ Centola St",,"42.359352","-71.147026",,,,
"10413","10413","Columbus Ave @ Weld  Ave",,"42.315037","-71.097748",,,,
"10417","10417","American Legion Hwy @ Blue Hill Ave",,"42.298241","-71.087204",,,,
"10418","10418","American Legion Hwy opp Franklin Hill Ave",,"42.295841","-71.092506",,,,
"10419","10419","American Legion Hwy @ Canterbury St",,"42.285946","-71.109848",,,,
"1042","1042","Market St @ Lothrop St",,"42.360287","-71.146469",,,,
"10420","10420","opp 150 American Legion Hwy",,"42.294762","-71.0933",,,,
"10421","10421","American Legion Hwy @ Walk Hill St",,"42.287701","-71.106949",,,,
"10422","10422","American Legion Hwy opp Shopping Center",,"42.284775","-71.111694",,,,
"10423","10423","American Legion Hwy @ Stella Rd",,"42.280766","-71.116249",,,,
"10424","10424","American Legion Hwy @ Cummins Hwy",,"42.278488","-71.116638",,,,
"10425","10425","American Legion Hwy opp Shopping Mall",,"42.274349","-71.116707",,,,
"10426","10426","American Legion Hwy @ Army Reserve",,"42.28426","-71.112434",,,,
"10427","10427","American Legion Hwy opp Kingbird Rd",,"42.29327","-71.094589",,,,
"1043","1043","Western Ave @ Mackin St",,"42.361572","-71.145096",,,,
"1044","1044","Western Ave @ Richardson St",,"42.361912","-71.14328",,,,
"1045","1045","450 Western Ave",,"42.362179","-71.141785",,,,
"1046","1046","Western Ave @ Litchfield St",,"42.362545","-71.139786",,,,
"1047","1047","Western Ave @ Star Market",,"42.36274","-71.13842",,,,
"1048","1048","382 Western Ave",,"42.362846","-71.137558",,,,
"1049","1049","Western Ave @ Everett St",,"42.363106","-71.135445",,,,
"105","105","Massachusetts Ave @ Clinton St",,"42.367432","-71.106842",,,,
"1050","1050","Western Ave @ N Harvard st",,"42.363171","-71.129539",,,,
"1051","1051","156 Western Ave",,"42.363342","-71.127388",,,,
"1052","1052","130 Western Ave - WGBH TV 2",,"42.363541","-71.125038",,,,
"10522","10522","Circuit Dr @ Glen Ln",,"42.302158","-71.087418",,,,
"1053","1053","60 Western Ave",,"42.363735","-71.122665",,,,
"10540","10540","Morton St @ Evans St",,"42.280899","-71.084656",,,,
"1055","1055","River St opp Blackstone St",,"42.361927","-71.11438",,,,
"1056","1056","River St @ Fairmount St",,"42.362579","-71.112389",,,,
"10569","10569","2165 Dorchester Ave",,"42.276299","-71.067024",,,,
"1058","1058","River St @ Pleasant St",,"42.363865","-71.108582",,,,
"10582","10582","River St opp Fremont St",,"42.269997","-71.089867",,,,
"10590","10590","Massachusetts Ave @ Washington St",,"42.336487","-71.076813",,,,
"106","106","Massachusetts Ave @ Hancock St",,"42.368404","-71.108612",,,,
"1060","1060","Magazine St @ Green St",,"42.364914","-71.104614",,,,
"10603","10603","Washington St @ Durnell Ave",,"42.282299","-71.132668",,,,
"1061","1061","Western Ave @ Kinnaird St",,"42.364964","-71.108902",,,,
"10612","10612","Washington St opp W Boundary Rd",,"42.268051","-71.149849",,,,
"10618","10618","Washington St @ Sumner St",,"42.256413","-71.163231",,,,
"1062","1062","Western Ave @ Howard St",,"42.364811","-71.110649",,,,
"10625","10625","Washington St opp Heron St",,"42.268845","-71.148552",,,,
"1063","1063","Western Ave @ Dodge St",,"42.364689","-71.112175",,,,
"10633","10633","Washington St @ Rosecliff St",,"42.282101","-71.132729",,,,
"1064","1064","Western Ave @ Putnam Ave",,"42.364506","-71.114113",,,,
"10642","10642","Forest Hills Station Upper Busway",,"42.300523","-71.113686",,,,"place-forhl"
"1067","1067","Western Ave opp Genzyme",,"42.363857","-71.122307",,,,
"1068","1068","125 Western Ave - WGBH TV 2",,"42.363667","-71.124626",,,,
"1069","1069","Western Ave @ Stadium Way",,"42.36343","-71.127487",,,,
"107","107","Massachusetts Ave @ Dana St",,"42.369274","-71.110771",,,,
"1070","1070","Western Ave @ N Harvard St",,"42.363297","-71.129143",,,,
"1071","1071","Western Ave opp Riverdale St",,"42.363266","-71.13208",,,,
"1072","1072","Western Ave @ Everett St",,"42.363194","-71.135544",,,,
"1074","1074","367 Western Ave opp Brighton Mills Mall",,"42.36282","-71.138519",,,,
"1075","1075","Western Ave opp Litchfield St",,"42.362675","-71.139572",,,,
"1076","1076","445 Western Ave",,"42.362354","-71.141357",,,,
"10768","10768","Centre St @ Grove St",,"42.268776","-71.16185",,,,
"10769","10769","Centre St @ Grove St",,"42.268871","-71.161789",,,,
"1077","1077","Western Ave opp Richardson St",,"42.361984","-71.143387",,,,
"10777","10777","Spring St @ Cass St",,"42.277184","-71.164192",,,,
"1078","1078","Western Ave @ Soldiers Field Rd",,"42.361652","-71.145203",,,,
"1079","1079","Market St @ Birmingham Pkwy",,"42.35709","-71.148575",,,,
"108","108","Massachusetts Ave @ Trowbridge St",,"42.370285","-71.112999",,,,
"1080","1080","Market St @ N Beacon St",,"42.356251","-71.149086",,,,
"1081","1081","Market St opp Faneuil St",,"42.3549","-71.149963",,,,
"1082","1082","Market St. opp. Mapleton St.",,"42.352654","-71.151367",,,,
"10820","10820","Veterans Hospital West Roxbury",,"42.273422","-71.173065",,,,
"10821","10821","Charles Park Rd @ VFW Pkwy",,"42.27684","-71.172523",,,,
"1083","1083","Market St @ Arlington St",,"42.351524","-71.152061",,,,
"10830","10830","5 Charles Park Rd",,"42.276943","-71.172562",,,,
"10832","10832","Dedham Mall",,"42.254734","-71.166901",,,,
"10833","10833","Dedham Mall @ Stop & Shop",,"42.257576","-71.167763",,,,
"1084","1084","Market St @ Washington St",,"42.349236","-71.153442",,,,
"1085","1085","Chestnut Hill Ave @ Academy Hill Rd",,"42.347103","-71.153748",,,,
"1086","1086","Chestnut Hill Ave @ Jackson Ave",,"42.344753","-71.15329",,,,
"1087","1087","Chestnut Hill Ave @ Wiltshire Rd",,"42.343063","-71.15361",,,,
"1088","1088","Chestnut Hill Ave @ Embassy Rd",,"42.34145","-71.154686",,,,
"1089","1089","Chestnut Hill Ave @ South St",,"42.3405","-71.155289",,,,
"109","109","Massachusetts Ave @ Quincy St",,"42.372208","-71.115463",,,,
"1090","1090","Chestnut Hill Ave @ Commonwealth Ave",,"42.338345","-71.153702",,,,
"1092","1092","Chestnut Hill Ave @ Beacon St",,"42.336235","-71.151108",,,,
"10923","10923","Cummins Hwy @ Wood Ave",,"42.274212","-71.109131",,,,
"1093","1093","Faneuil St @ Brackett St",,"42.351898","-71.165199",,,,
"1094","1094","Faneuil St @ Fairbanks St",,"42.352379","-71.16301",,,,
"1095","1095","Faneuil St @ Oakland St",,"42.352615","-71.160683",,,,
"1096","1096","Faneuil St opp Bothwell Rd",,"42.353046","-71.159546",,,,
"1097","1097","Faneuil St @ Hobart St",,"42.353985","-71.158134",,,,
"1098","1098","Hobart St @ Falkland St",,"42.35487","-71.158562",,,,
"11","11","Melnea Cass Blvd @ Kerr Way",,"42.334778","-71.084457",,,,
"110","110","Massachusetts Ave @ Holyoke St - Holyoke Gate",,"42.373362","-71.118956",,,,"place-harsq"
"1100","1100","Hobart St @ Brooks St",,"42.355553","-71.16243",,,,
"1102","1102","N Beacon St @ Parsons St",,"42.358311","-71.157997",,,,
"1103","1103","N Beacon St @ Goodenough St",,"42.357365","-71.153793",,,,
"1104","1104","N Beacon St opp Vineland St",,"42.357014","-71.152802",,,,
"1107","1107","N Beacon St @ Etna St",,"42.355328","-71.146248",,,,
"11070","11070","Life St @ Guest St",,"42.357021","-71.145699",,,,
"11071","11071","Arthur St @ Guest St - Stop & Shop",,"42.356789","-71.140549",,,,
"1108","1108","Chestnut Hill Ave opp Veronica Smith Ctr",,"42.347633","-71.15403",,,,
"1109","1109","N Beacon St @ Saunders St",,"42.35413","-71.14151",,,,
"111","111","Mt Vernon St @ South Point Dr",,"42.317196","-71.040237",,,,
"1110","1110","N Beacon St @ Cambridge St",,"42.353596","-71.138168",,,,
"1111","1111","Cambridge St @ Craftsman St",,"42.353943","-71.13636",,,,
"11111","11111","UMass Boston Busway",,"42.315453","-71.040787",,,,
"1112","1112","Cambridge St @ Harvard Ave",,"42.355381","-71.132935",,,,
"1113","1113","Cambridge St @ Linden St",,"42.355961","-71.131454",,,,
"11131","11131","Centre St @ Roseway",,"42.319008","-71.111931",,,,
"11134","11134","Paul Gore St @ St Peter St",,"42.319267","-71.107582",,,,
"1114","1114","Cambridge St @ N Harvard St",,"42.357773","-71.126503",,,,
"11148","11148","Malcolm X Blvd @ Madison Park HS",,"42.331154","-71.090057",,,,
"11149","11149","Malcolm X Blvd @ O'Bryant HS",,"42.330715","-71.088348",,,,
"1115","1115","Cambridge St @ Seattle St",,"42.358742","-71.124016",,,,
"11158","11158"," Harrison Ave  @ E Brookline St",,"42.338406","-71.070915",,,,
"1116","1116","Cambridge St @ Mass Pike Exit",,"42.360653","-71.118546",,,,
"11164","11164","Centre St @ Burroughs St",,"42.311481","-71.114502",,,,
"1117","1117","Putnam Ave @ Allston St",,"42.361725","-71.113533",,,,
"1118","1118","Magazine St @ Putnam Ave",,"42.359211","-71.110886",,,,
"11187","11187","Washington St @ School St",,"42.314709","-71.099457",,,,
"1119","1119","Magazine St @ Erie St",,"42.360992","-71.10891",,,,
"1120","1120","Magazine St @ McTernan Way",,"42.3615","-71.108368",,,,
"11200","11200","Canal St @ Causeway St",,"42.365353","-71.061073",,,,
"1121","1121","Magazine St @ Perry St",,"42.362358","-71.107445",,,,
"11218","11218","Congress St @ A St",,"42.350449","-71.048492",,,,
"11219","11219","A St. @ Necco Ct.",,"42.348862","-71.049629",,,,
"1122","1122","Magazine St @ Auburn St",,"42.36388","-71.105728",,,,
"11228","11228","Tremont St @ Lenox St",,"42.337795","-71.083038",,,,
"1123","1123","Green St @ Magazine St",,"42.36499","-71.104454",,,,
"11241","11241","South Bay Mall @ Target",,"42.330456","-71.063347",,,,
"11242","11242","South Bay Mall @ Office Max",,"42.32793","-71.063416",,,,
"11245","11245","Tremont St @ Berkeley St",,"42.345478","-71.069801",,,,
"11257","11257","Malcolm X Blvd @ King St",,"42.331223","-71.092697",,,,
"11259","11259","Malcolm X Blvd @ Shawmut Ave",,"42.329502","-71.086197",,,,
"1127","1127","Dudley St @ Shirley St",,"42.323093","-71.073212",,,,
"1128","1128","South St @ Centre St",,"42.309761","-71.115349",,,,
"11280","11280","Dudley St opp Shirley St",,"42.322987","-71.073265",,,,
"1129","1129","Centre St @ Seaverns Ave",,"42.31221","-71.114143",,,,
"113","113","Causeway St @ Canal St",,"42.365577","-71.06129",,,,"place-north"
"1130","1130","Centre St @ Lester Pl",,"42.313801","-71.114044",,,,
"11302","11302","Harvard St @ Verndale St",,"42.348579","-71.129623",,,,
"1131","1131","Centre St @ Parley Ave",,"42.3153","-71.114029",,,,
"11317","11317","Huntington Ave @ Tremont St - Brigham Circle",,"42.334103","-71.104424",,,,
"11319","11319","W Second St opp W Third St",,"42.34306","-71.055038",,,,
"1132","1132","Centre St @ Robinwood Ave",,"42.31699","-71.113358",,,,
"11320","11320","Tremont St @ Carmel St",,"42.332474","-71.100151",,,,
"11323","11323","Malcolm X Blvd opp O'Bryant HS",,"42.330605","-71.088326",,,,
"1134","1134","Centre St @ Paul Gore St",,"42.320869","-71.11055",,,,
"1135","1135","Centre St @ Sheridan St",,"42.322178","-71.109039",,,,
"1136","1136","Centre St @ Wyman St",,"42.322472","-71.106964",,,,
"11366","11366","Pearl St @ Washington St",,"42.331947","-71.116287",,,,
"1137","1137","Centre St @ Mozart St",,"42.322697","-71.10466",,,,
"1138","1138","Centre St @ Estrella St",,"42.322868","-71.102974",,,,
"11384","11384","Dartmouth St @ Back Bay Sta",,"42.34735","-71.075727",,,,"place-bbsta"
"11388","11388","Huntington Ave @ Belvidere St",,"42.345356","-71.082047",,,,
"1139","1139","Mt Vernon St opp Harbor Point Blvd",,"42.318462","-71.044235",,,,
"11390","11390"," Dalton St @ Boylston St",,"42.347794","-71.085472",,,,
"11391","11391","Boylston St @ Massachusetts Ave",,"42.347401","-71.087494",,,,
"114","114","Causeway St. @ North Station",,"42.365577","-71.06129",,,,"place-north"
"1140","1140","Centre St @ Highland St",,"42.324806","-71.097572",,,,
"1141","1141","Centre St @ Marcella St",,"42.326103","-71.096512",,,,
"11413","11413","Columbus Ave @ Walnut Ave",,"42.313297","-71.095322",,,,
"11419","11419","A St @ Mt Washington Ave",,"42.346355","-71.051613",,,,
"1142","1142","Centre St @ Cedar St",,"42.327793","-71.09552",,,,
"1143","1143","Centre St @ Linwood St",,"42.328609","-71.094978",,,,
"1144","1144","Centre St @ Highland Ave",,"42.32967","-71.093033",,,,
"1145","1145","42A John Eliot Sq",,"42.329975","-71.091545",,,,
"1146","1146","42 Dudley St",,"42.329411","-71.089127",,,,
"1147","1147","Dudley St @ Shawmut Ave",,"42.328983","-71.086205",,,,
"11478","11478","58 Hancock St opp Glendale St",,"42.313496","-71.065094",,,,
"1148","1148","Malcolm X Blvd @ Shawmut Ave",,"42.329697","-71.086128",,,,
"11481","11481","Herald St @ Harrison Ave",,"42.346313","-71.063362",,,,
"11482","11482","Dudley St @ Clifton St",,"42.318798","-71.069138",,,,
"1149","1149","205 Roxbury St",,"42.330109","-71.091339",,,,
"1150","1150","Centre St @ Gardner St",,"42.329399","-71.094101",,,,
"11501","11501","Dudley St @ Monadnock St",,"42.318001","-71.067413",,,,
"1151","1151","Centre St @ Cedar St",,"42.32756","-71.09581",,,,
"11511","11511","Sleeper St @ Seaport Blvd",,"42.353825","-71.048576",,,,
"11512","11512","Bowdoin opp Mt Ida",,"42.307232","-71.066002",,,,
"11519","11519","A St opp Wormwood St",,"42.346977","-71.051163",,,,
"1152","1152","Centre St @ New Heath St",,"42.326065","-71.096664",,,,
"11520","11520","Park dr @ Fenway Sta",,"42.343918","-71.103279",,,,
"11521","11521","131 Morton St",,"42.300148","-71.106422",,,,
"1153","1153","Centre St @ Columbus Ave",,"42.324932","-71.098106",,,,
"11531","11531","Jackson Sq Station @ Orange Line",,"42.323132","-71.099592",,,,"place-jaksn"
"11532","11532","W Broadway @ Linsky Barry Ct",,"42.339687","-71.052299",,,,
"1154","1154","Heath St @ Bromley St",,"42.325378","-71.099579",,,,
"11545","11545","Lee St @ Boylston St",,"42.325821","-71.140472",,,,
"1155","1155","Centre St @ Bickford St",,"42.322964","-71.102272",,,,
"1156","1156","Centre St @ Sunnyside St",,"42.322689","-71.105713",,,,
"1158","1158","Centre St @ Creighton St",,"42.32238","-71.108658",,,,
"11587","11587","Circuit Dr @ Glen Ln",,"42.302345","-71.087303",,,,
"1159","1159","Centre St @ Barbara St",,"42.321106","-71.110542",,,,
"11592","11592","Ruggles St @ Cabot St",,"42.333878","-71.087173",,,,
"11593","11593","Ruggles St opp Kerr Way",,"42.333199","-71.086014",,,,
"1160","1160","S Huntington Ave @ Moraine St",,"42.319633","-71.111725",,,,
"11609","11609","Centre St @ S Huntington Ave",,"42.320099","-71.111336",,,,
"1161","1161","Centre St @ Lochstead Ave",,"42.317379","-71.113228",,,,
"11613","11613","W Boundary Rd @ Washington St",,"42.267445","-71.149986",,,,
"1162","1162","Centre St @ Lakeville Rd",,"42.31588","-71.114128",,,,
"1164","1164","Centre St @ Myrtle St",,"42.31332","-71.114159",,,,
"1165","1165","Washington St @ W Walnut Pk",,"42.316322","-71.097702",,,,
"1166","1166","Washington St @ Cobden St",,"42.317593","-71.096451",,,,
"1167","1167","Washington St opp Dimock St",,"42.318913","-71.095139",,,,
"11673","11673","209 Cambridge St",,"42.453011","-71.157951",,,,
"1168","1168","Washington St @ Townsend St",,"42.319973","-71.094063",,,,
"11689","11689","Mall Rd opp NE Ececutive Pk",,"42.48592","-71.211731",,,,
"1169","1169","Washington St @ Brinton St",,"42.320843","-71.092972",,,,
"11694","11694","S Bedford St @ Wayside Rd",,"42.484211","-71.194916",,,,
"117","117","Congress St @ Haymarket  Sta",,"42.363021","-71.05829",,,,"place-haecl"
"1170","1170","Washington St @ ML King Blvd",,"42.321762","-71.091751",,,,
"11708","11708","Blue Hill Ave opp Westview St",,"42.291332","-71.089317",,,,
"11712","11712","Blue Hill Ave @ Morton St",,"42.284145","-71.091713",,,,
"11716","11716","Blue Hill Ave @ Tennis Rd",,"42.275333","-71.093758",,,,
"11719","11719","Blue Hill Ave opp Babson St",,"42.270222","-71.093887",,,,
"1172","1172","Washington St @ Dale St",,"42.323364","-71.089561",,,,
"1173","1173","Washington St opp Cedar St",,"42.324116","-71.088806",,,,
"11735","11735","Ames St @ Franklin Field Housing",,"42.289776","-71.083847",,,,
"11736","11736","Ames St @ Westview St",,"42.290581","-71.086517",,,,
"1174","1174","Washington St @ Circuit Terr",,"42.32584","-71.087769",,,,
"1175","1175","Washington St @ St James St",,"42.32729","-71.087151",,,,
"1176","1176","Washington St @ Dudley St",,"42.328804","-71.085167",,,,
"11771","11771","Vassar St @ Mass Ave",,"42.360245","-71.09481",,,,
"1178","1178","Washington St @ Bartlett St",,"42.327652","-71.08712",,,,
"11780","11780","Ave Louis Pasteur @ Longwood Ave",,"42.338455","-71.102234",,,,
"11781","11781","Ave Louis Pasteur @ The Fenway",,"42.340248","-71.100838",,,,
"1179","1179","Washington St @ Guild St",,"42.32605","-71.087807",,,,
"11792","11792","Harrison Ave @ Melnea Cass Blvd",,"42.332146","-71.07933",,,,
"11799","11799","Ave Louis Pasteur @ The Fenway",,"42.340286","-71.100975",,,,
"1180","1180","Washington St @ Cedar St",,"42.324322","-71.088776",,,,
"11802","11802","Ave Louis Pasteur @ Longwood Ave",,"42.338501","-71.102341",,,,
"11803","11803","Longwood Ave @ Binney St",,"42.338211","-71.105934",,,,
"11809","11809","Mountfort St @ Carlton St",,"42.348751","-71.108742",,,,
"1181","1181","Washington St @ Oakland St",,"42.323475","-71.0896",,,,
"1182","1182","Washington St @ Valentine St",,"42.321785","-71.091896",,,,
"1183","1183","Washington St @ Marcella St",,"42.320866","-71.093124",,,,
"11835","11835","Chestnut Hill Ave opp Buckminster Rd",,"42.332329","-71.14679",,,,
"11836","11836","145 Grove St opp Bellingham Rd",,"42.304482","-71.150101",,,,
"11837","11837","Grove St @ South St",,"42.30265","-71.15226",,,,
"11839","11839","Corey St @ LaGrange St",,"42.3004","-71.169861",,,,
"1184","1184","Washington St opp Townsend St",,"42.320168","-71.094002",,,,
"11845","11845","Chestnut Hill Ave @ Ackers Ave",,"42.329987","-71.146011",,,,
"1185","1185","Washington St @ Dimock St",,"42.31892","-71.095291",,,,
"11853","11853","Chestnut St opp Oak St",,"42.277039","-71.237373",,,,
"1186","1186","Washington St @ Bragdon St",,"42.317429","-71.096771",,,,
"11860","11860","Robert St @ Belgrade Ave",,"42.286762","-71.131088",,,,
"11868","11868","5 Walter St opp Hewlett St",,"42.289165","-71.133827",,,,
"1187","1187","Washington St @ Columbus Ave",,"42.316315","-71.097855",,,,
"1188","1188","1990 Columbus Ave",,"42.315407","-71.097816",,,,
"1189","1189","Cambridge St @ Mass Pike",,"42.360821","-71.118668",,,,
"11891","11891","Pearl St @ Congress St",,"42.357624","-71.056313",,,,
"1190","1190","Cambridge St @ Seattle St",,"42.358906","-71.123856",,,,
"1191","1191","Cambridge St @ N Harvard St",,"42.357952","-71.126701",,,,
"11917","11917","Chestnut Hill Ave @ Buckminster Rd",,"42.332428","-71.146721",,,,
"1192","1192","Cambridge St opp Linden St",,"42.356205","-71.131363",,,,
"1193","1193","Cambridge St @ Franklin St",,"42.355606","-71.132675",,,,
"11939","11939","Centre St @ Eliot St",,"42.309666","-71.115761",,,,
"1195","1195","Cambridge St @ Hano St",,"42.354023","-71.136436",,,,
"1196","1196","N Beacon St @ Everett St",,"42.353863","-71.138893",,,,
"1197","1197","N Beacon St opp Saunders St",,"42.354374","-71.141739",,,,
"11971","11971","Arthur St @ Guest St - Stop & Shop",,"42.356899","-71.140564",,,,
"11972","11972","Guest St @ Life St",,"42.357098","-71.14563",,,,
"1199","1199","N Beacon St @ Life St",,"42.355522","-71.146271",,,,
"120","120","Rivermoor St @ Industrial Park",,"42.278461","-71.177803",,,,
"1200","1200","N Beacon St @ Market St",,"42.356201","-71.148926",,,,
"1201","1201","239 N Beacon",,"42.356472","-71.150002",,,,
"1202","1202","N Beacon St @ Vineland St",,"42.357201","-71.152794",,,,
"1203","1203","N Beacon St @ Birmingham Pkwy",,"42.358456","-71.15715",,,,
"1204","1204","Birmingham Pkwy @ Soldiers Field Rd",,"42.358974","-71.158409",,,,
"1206","1206","Hobart St @ Brooks St",,"42.355446","-71.162376",,,,
"1208","1208","Hobart St @ Falkland St",,"42.354763","-71.158516",,,,
"12081","12081","Faneuil St @ Donnybrook Rd",,"42.353905","-71.158539",,,,
"121","121","Columbia Rd @ JFK/UMASS Station",,"42.320685","-71.052391",,,,"place-jfkred"
"1210","1210","Faneuil St opp Garfield School",,"42.352688","-71.160988",,,,
"1211","1211","Faneuil St @ Brooks St",,"42.35247","-71.163063",,,,
"1212","1212","Faneuil St @ Brackett St",,"42.352055","-71.165024",,,,
"1213","1213","Faneuil  @ Bigelow",,"42.351269","-71.16748",,,,
"1214","1214","Faneuil St @ Oak Square",,"42.351208","-71.167351",,,,
"12144","12144","Huron Ave opp Park Ave",,"42.37899","-71.148529",,,,
"12145","12145","Huron Ave opp VFW Post 8818",,"42.380173","-71.15258",,,,
"12146","12146","Opp 700 Huron Ave",,"42.381275","-71.154594",,,,
"12147","12147","700 Huron Ave",,"42.381195","-71.154671",,,,
"12148","12148","Huron Ave @ VFW Post 8818",,"42.380062","-71.15258",,,,
"12149","12149","Huron Ave @ Park Ave",,"42.378887","-71.148476",,,,
"1215","1215","Columbus Ave @ Bray St",,"42.317257","-71.098114",,,,
"1216","1216","Columbus Ave @ Dimock St",,"42.319466","-71.098152",,,,
"1217","1217","Columbus Ave @ Academy Rd",,"42.320522","-71.098167",,,,
"1218","1218","Columbus Ave @ Ritchie St",,"42.322323","-71.098259",,,,
"1219","1219","Columbus Ave @ Centre St",,"42.325027","-71.098076",,,,
"122","122","Columbia Rd @ Dorchester Ave",,"42.320675","-71.056976",,,,
"1221","1221","Columbus Ave @ Cedar St",,"42.328026","-71.096909",,,,
"1222","1222","Columbus Ave @ Malcolm X Blvd",,"42.331203","-71.094467",,,,
"1224","1224","Tremont St opp Prentiss St",,"42.332718","-71.092339",,,,
"1226","1226","Tremont St @ Ruggles St",,"42.336377","-71.088961",,,,"place-rugg"
"1227","1227","Tremont St @ Melnea Cass Blvd",,"42.335739","-71.086845",,,,
"1228","1228","Tremont St @ Hammond St",,"42.337238","-71.084023",,,,
"12295","12295","Massachusetts Ave @ North Cambridge Carhouse Gate",,"42.396671","-71.129189",,,,
"123","123","Columbia Rd opp Pond St",,"42.320061","-71.059998",,,,
"1230","1230","Tremont St @ Northampton St",,"42.338757","-71.081161",,,,
"12301","12301","Massachusetts Ave @ Upland Rd",,"42.388321","-71.119637",,,,
"1231","1231","Tremont St @ Massachusetts Ave",,"42.339306","-71.080086",,,,
"1232","1232","Tremont St @ W Concord St",,"42.34042","-71.078156",,,,
"12323","12323","Park Ave @ Oakland Ave",,"42.417816","-71.180679",,,,
"1233","1233","Tremont St @ W Newton St",,"42.341248","-71.076653",,,,
"1234","1234","Tremont St @ W Brookline St",,"42.3419","-71.075409",,,,
"1235","1235","Tremont St @ W Dedham St",,"42.342678","-71.073944",,,,
"12352","12352","Lake St @ Pleasant St",,"42.405262","-71.164124",,,,
"1236","1236","Tremont St @ Waltham St",,"42.343887","-71.071648",,,,
"12360","12360","Park Ave @ Park Circle",,"42.415325","-71.180412",,,,
"1237","1237","Tremont St @ E Berkeley St",,"42.345158","-71.06987",,,,
"12376","12376","Winthrop St @ Orchard St",,"42.413071","-71.120842",,,,
"1238","1238","Tremont St @ Herald St",,"42.347378","-71.068604",,,,
"1239","1239","Tremont St @ Marginal St",,"42.348194","-71.067596",,,,
"124","124","Massachusetts Ave @ Columbia Rd",,"42.320637","-71.061569",,,,
"1240","1240","Charles St S @ Stuart St",,"42.350632","-71.066719",,,,
"1241","1241","Charles St S @ Park Plaza",,"42.351761","-71.067101",,,,
"1242","1242","Tremont St @ Charles St S",,"42.348789","-71.066483",,,,
"12432","12432","West Service Rd @ Spring St",,"42.408203","-71.169769",,,,
"1246","1246","Tremont St @ Union Pk",,"42.343685","-71.072266",,,,
"12465","12465","Wadsworth Rd @ Appleton St",,"42.417057","-71.199226",,,,
"12468","12468","Appleton St @ Virginia Rd",,"42.418827","-71.191994",,,,
"1247","1247","Tremont St @ Dartmouth St",,"42.342922","-71.073692",,,,
"1248","1248","Tremont St @ Pembroke St",,"42.341751","-71.075912",,,,
"1249","1249","Tremont St @ Rutland Sq",,"42.341022","-71.077309",,,,
"125","125","Massachusetts Ave @ Clapp St",,"42.323502","-71.063927",,,,
"1250","1250","Tremont St @ Worcester St",,"42.340202","-71.078789",,,,
"1251","1251","Tremont St @ Massachusetts Ave",,"42.33942","-71.080254",,,,
"1252","1252","Tremont St @ Northampton St",,"42.33897","-71.081131",,,,
"1253","1253","Tremont St @ Douglas Pk",,"42.337837","-71.083176",,,,
"1254","1254","Tremont St @ Burke St",,"42.336922","-71.084801",,,,
"1255","1255","Tremont St @ Columbus Ave",,"42.335804","-71.086952",,,,
"1257","1257","Tremont St @ Prentiss St",,"42.333084","-71.092377",,,,
"1258","1258","Tremont St @ Roxbury Crossing Station",,"42.331397","-71.095451",,,,"place-rcmnl"
"1259","1259","Malcolm X Blvd opp Madison Park HS",,"42.331047","-71.090019",,,,
"126","126","Massachusetts Ave @ Allstate Rd",,"42.324673","-71.064919",,,,
"1260","1260","Columbus Ave @ New Cedar St",,"42.328079","-71.097305",,,,
"1261","1261","Columbus Ave @ New Heath St",,"42.326168","-71.098091",,,,
"12610","12610","Somerville Ave @ Merriam St",,"42.378254","-71.09169",,,,
"12614","12614","Waterhouse St @ Massachusetts Ave",,"42.377678","-71.120323",,,,
"12615","12615","Somerville Ave @ Church St",,"42.381493","-71.100258",,,,
"12616","12616","Somerville Ave @ School St",,"42.382011","-71.101852",,,,
"12618","12618","Washington St opp Harris St",,"42.249249","-71.172157",,,,
"1262","1262","Columbus Ave @ Heath St",,"42.325043","-71.09848",,,,
"12636","12636","Broadway opp Clarendon Hill Busway",,"42.406471","-71.132584",,,,
"12637","12637","Broadway @ Sunnyside Ave",,"42.40741","-71.134567",,,,
"12638","12638","Broadway @ Silk St",,"42.40807","-71.135971",,,,
"12639","12639","Broadway opp Cleveland St",,"42.40884","-71.137589",,,,
"1264","1264","Columbus Ave @ Amory St",,"42.322456","-71.098663",,,,
"12640","12640","Broadway @ N Union St",,"42.409664","-71.139282",,,,
"12641","12641","Broadway opp Harlow St",,"42.410679","-71.141396",,,,
"12642","12642","Broadway @ Tufts St",,"42.411552","-71.143417",,,,
"12643","12643","Broadway @ Allen St",,"42.412437","-71.145569",,,,
"12645","12645","Broadway @ Massachusetts Ave",,"42.414356","-71.150284",,,,
"12648","12648","Broadway @ Allen St",,"42.412327","-71.145561",,,,
"12649","12649","Broadway @ Tufts St",,"42.411438","-71.14341",,,,
"1265","1265","Columbus Ave @ Dimock St",,"42.319672","-71.098541",,,,
"12650","12650","Broadway @ Harlow St",,"42.410568","-71.141396",,,,
"12651","12651","Broadway @ Oxford St",,"42.409554","-71.13929",,,,
"12652","12652","Broadway @ Cleveland St",,"42.4086","-71.137314",,,,
"12653","12653","Broadway opp Silk St",,"42.407948","-71.135956",,,,
"12654","12654","Broadway opp Sunnyside Ave",,"42.407299","-71.13456",,,,
"1266","1266","Columbus Ave @ W Walnut Pk",,"42.317074","-71.098465",,,,
"1267","1267","Columbus Ave @ Washington St",,"42.31591","-71.098396",,,,
"1268","1268","Washington St @ Shepard St",,"42.348236","-71.149879",,,,
"1269","1269","Washington St @ Snow St",,"42.346893","-71.148216",,,,
"127","127","Massachusetts Ave @ Newmarket SQ",,"42.326683","-71.066605",,,,
"1270","1270","Washington St @ Monastary Rd",,"42.346127","-71.146378",,,,
"1272","1272","Washington St @ Euston St",,"42.344646","-71.144684",,,,
"1273","1273","Washington St @ Commonwealth Ave",,"42.343884","-71.143265",,,,
"1274","1274","Washington St @ Corey St",,"42.342407","-71.140564",,,,
"1275","1275","Wahington St @ Evans Rd",,"42.341057","-71.137947",,,,
"12759","12759","Washington St @ Myrtle St - Cobble Hill Apt",,"42.381748","-71.083809",,,,
"1276","1276","Washington St @ Beacon St",,"42.339489","-71.135704",,,,
"12767","12767","Springfield St opp Houghton St",,"42.375298","-71.10006",,,,
"1278","1278","Washington St @ Winthrop Path",,"42.338322","-71.131599",,,,
"12783","12783","Gordon Ave @ Summer St",,"42.256332","-71.125999",,,,
"12789","12789","West St @ Lodge Hill Rd",,"42.26479","-71.12764",,,,
"1279","1279","Washington St @ Gardner Rd",,"42.338425","-71.129158",,,,
"128","128","1010 Massachusetts Ave opp Magazine St",,"42.327999","-71.067741",,,,
"1280","1280","Washington St @ Gardner Path",,"42.336994","-71.12648",,,,
"1281","1281","Washington St @ Greenough Circle",,"42.335144","-71.124664",,,,
"12812","12812","West St opp Lodge Hill Rd",,"42.264683","-71.12767",,,,
"12817","12817","Gordon Ave @ River St",,"42.255695","-71.125679",,,,
"12819","12819","Hyde Park Ave opp B St",,"42.250874","-71.125908",,,,
"1282","1282","Washington St @ Cypress St",,"42.334541","-71.122879",,,,
"12821","12821","Main St opp Schraffts Bldg",,"42.383732","-71.072327",,,,
"12826","12826","Main St @ Union St",,"42.374619","-71.06385",,,,
"12829","12829","Chelsea St @ Warren St",,"42.371872","-71.06086",,,,
"1283","1283","Washington St @ Harvard St",,"42.332928","-71.118874",,,,
"12835","12835","Chelsea St @ Warren St",,"42.371643","-71.06102",,,,
"12836","12836","Chelsea St @ Warren St",,"42.372162","-71.060234",,,,
"12837","12837","Chelsea St @ Constitution Rd",,"42.375217","-71.056297",,,,
"12838","12838","Chelsea St @ Fifth St",,"42.375568","-71.055832",,,,
"1285","1285","Washington St @ Station St",,"42.332188","-71.118156",,,,
"12853","12853","Thirteenth St @ Second Ave",,"42.377083","-71.051155",,,,
"12855","12855","First Ave @ Ninth St",,"42.376102","-71.052612",,,,
"12856","12856","First Ave @ Fifth St",,"42.374603","-71.055077",,,,
"12859","12859","First Ave @ Eighth St",,"42.37537","-71.053604",,,,
"1286","1286","Washington St @ Harvard St",,"42.333035","-71.118828",,,,
"12860","12860","First Ave @ Ninth St",,"42.376213","-71.052254",,,,
"12862","12862","Thirteenth St @ Fifth Ave",,"42.378601","-71.052284",,,,
"12866","12866","Bunker Hill St @ Baldwin St",,"42.382526","-71.069733",,,,
"1287","1287","Washington St @ School St",,"42.334743","-71.123207",,,,
"12879","12879","Middlesex Ave @ Foley St - Mall Parking Entrance",,"42.392521","-71.082909",,,,
"1288","1288","Washington St opp Greenough St",,"42.335255","-71.124649",,,,
"12880","12880","Middlesex Ave @ Fellsway W",,"42.396259","-71.083946",,,,
"12888","12888","Mystic Ave opp Union St",,"42.414383","-71.109879",,,,
"1289","1289","Washington St @ Griggs Rd",,"42.337418","-71.126747",,,,
"12891","12891","Pearl St @ High St",,"42.355339","-71.054123",,,,
"129","129","Rivermoor St @ Charles Park Rd",,"42.27887","-71.175659",,,,
"1290","1290","Washington St opp Gardner Rd",,"42.33852","-71.128914",,,,
"1291","1291","Washington St @ Fairbank St",,"42.338379","-71.131332",,,,
"1292","1292","Washington St @ Beacon St",,"42.339214","-71.135063",,,,
"1293","1293","Washington St @ Bartlett St",,"42.341259","-71.138161",,,,
"12932","12932","Columbia Rd @ Bird St",,"42.314507","-71.067207",,,,
"1294","1294","Washington St @ Corey Rd",,"42.342384","-71.140297",,,,
"12940","12940","Boston St @ Fr Songin Way",,"42.328041","-71.057831",,,,
"1295","1295","Washington St @ Commonwealth Ave",,"42.343601","-71.142525",,,,
"1296","1296","Washington St opp Euston Rd",,"42.344608","-71.144417",,,,
"1298","1298","Washington St @ Monastery Rd",,"42.346069","-71.146118",,,,
"1299","1299","Washington St opp Snow St",,"42.347008","-71.148209",,,,
"13","13","Andrew Sta - Red Line",,"42.330154","-71.057655",,,,"place-andrw"
"1300","1300","Washington St opp Shepard St",,"42.348145","-71.149635",,,,
"1301","1301","7 Winship St",,"42.348827","-71.150757",,,,
"1302","1302","Harvard Ave @ Commonwealth Ave",,"42.350563","-71.13118",,,,
"1304","1304","Harvard St @ Coolidge St",,"42.345901","-71.127808",,,,
"1306","1306","Harvard St @ Williams St",,"42.344471","-71.125404",,,,
"1307","1307","322 Harvard St",,"42.343262","-71.123154",,,,
"1308","1308","Harvard St @ Beacon St",,"42.34227","-71.121475",,,,
"1309","1309","Harvard St @ Marion St",,"42.339832","-71.120956",,,,
"13093","13093","Adams St @ Grenwold Rd",,"42.253029","-71.017746",,,,
"131","131","Massachusetts Ave @ Shirley St",,"42.326885","-71.067101",,,,
"1310","1310","Harvard St @ Auburn St",,"42.337353","-71.121552",,,,
"1311","1311","Harvard St @ School St",,"42.336002","-71.120644",,,,
"1312","1312","Harvard St @ Pierce St",,"42.334457","-71.119179",,,,
"13121","13121","Dewar Ave @ Dorchester Ave",,"42.309982","-71.057762",,,,
"1313","1313","Harvard St @ Washington St",,"42.332989","-71.118774",,,,
"1314","1314","Huntington Ave @ Jamaicaway",,"42.331764","-71.112526",,,,
"1315","1315","Huntington Ave @ Parker Hill Ave",,"42.333057","-71.109673",,,,
"1316","1316","Huntington Ave @ Mission St",,"42.333138","-71.10714",,,,
"1317","1317","Huntington Ave opp Fenwood Rd",,"42.334229","-71.104609",,,,"place-brmnl"
"1319","1319","Tremont St opp Wigglesworth St",,"42.333565","-71.103134",,,,
"1320","1320","Tremont St @ Whitney St",,"42.333202","-71.102158",,,,
"1322","1322","Tremont St @ Parker St",,"42.331707","-71.096992",,,,
"1323","1323","Tremont St @ Columbus Ave",,"42.331397","-71.095451",,,,"place-rcmnl"
"13245","13245","Sea St @ Moffat St",,"42.262093","-70.986519",,,,
"1325","1325","Humboldt Ave @ Seaver St",,"42.310047","-71.091904",,,,
"1326","1326","Humboldt Ave @ Hutchings St",,"42.31126","-71.090935",,,,
"1327","1327","Humboldt Ave @ Homestead St",,"42.311798","-71.090515",,,,
"1328","1328","Humboldt Ave @ Crawford St",,"42.31337","-71.089241",,,,
"133","133","Massachusetts Ave opp Clapp St",,"42.323563","-71.06427",,,,
"1330","1330","Humboldt Ave @ Waumbeck St",,"42.31451","-71.088333",,,,
"1331","1331","Humboldt Ave @ Wyoming St",,"42.315731","-71.087349",,,,
"1332","1332","Humboldt Ave @ Townsend St",,"42.316948","-71.086502",,,,
"13321","13321","Townsend St @ Warren St",,"42.316471","-71.083458",,,,
"1334","1334","Humboldt Ave @ Humboldt Ct",,"42.31855","-71.08609",,,,
"1335","1335","Humboldt Ave @ ML King Blvd",,"42.319252","-71.085953",,,,
"1337","1337","Humboldt Ave @ Walnut Ave",,"42.320534","-71.085945",,,,
"13378","13378","Adams St  @ Galivan Blvd",,"42.28265","-71.055405",,,,
"1338","1338","Walnut Ave @ Rockland St",,"42.322376","-71.084854",,,,
"1339","1339","Walnut Ave @ Richards St",,"42.323429","-71.084099",,,,
"134","134","Massachusetts Ave @ Columbia Rd",,"42.32053","-71.061607",,,,
"1340","1340","Walnut Ave @ Circuit St",,"42.324036","-71.083237",,,,
"13400","13400","Bryant Ave @ Upton St",,"42.250381","-71.038383",,,,
"13402","13402","Quarry St @ Common St",,"42.25021","-71.025375",,,,
"13403","13403","Opp. 254 Quarry St",,"42.248135","-71.019722",,,,
"13404","13404","Opp 150 Quarry St",,"42.246361","-71.016357",,,,
"13406","13406","Granite St @ Packards Lane",,"42.244438","-71.010307",,,,
"13407","13407","125 Granite St",,"42.246281","-71.005943",,,,
"1341","1341","Walnut Ave @ Rockland St",,"42.322369","-71.084999",,,,
"1342","1342","Walnut Ave @ Humboldt Ave",,"42.320709","-71.086075",,,,
"1344","1344","Humboldt Ave @ ML King Blvd",,"42.319195","-71.086082",,,,
"1345","1345","Humboldt Ave @ Munroe St",,"42.318092","-71.086319",,,,
"1346","1346","Humboldt Ave @ Townsend St",,"42.317146","-71.086548",,,,
"13482","13482","Fontbonne Academy",,"42.260113","-71.059372",,,,
"135","135","Columbia Rd @ Pond St",,"42.319962","-71.059929",,,,
"1350","1350","Humboldt Ave @ Waumbeck St",,"42.314713","-71.088318",,,,
"1351","1351","Humboldt Ave @ Crawford St",,"42.313156","-71.089561",,,,
"1352","1352","Humboldt Ave @ Homestead St",,"42.312004","-71.0905",,,,
"1353","1353","Humboldt Ave @ Hutchings St",,"42.311253","-71.091087",,,,
"1354","1354","Humboldt Ave @ Seaver St",,"42.310043","-71.092056",,,,
"1357","1357","Tremont St opp Roxbury Crossing Sta",,"42.331397","-71.095451",,,,"place-rcmnl"
"1359","1359","Tremont St @ Parker St",,"42.33181","-71.097046",,,,
"13590","13590","Tremont St @ Tobin Community Center",,"42.332039","-71.098213",,,,
"136","136","Columbia Rd @ Dorchester Ave",,"42.320732","-71.056549",,,,
"1360","1360","Tremont St @ Mission Church",,"42.332485","-71.099876",,,,
"1361","1361","Tremont St @ Worthington St",,"42.33345","-71.102509",,,,
"13618","13618","Washington St @ School St",,"42.247581","-71.17392",,,,
"1362","1362","Tremont St @ Huntington Ave",,"42.334045","-71.104294",,,,
"1363","1363","Huntington Ave @ Fenwood Rd",,"42.333912","-71.105591",,,,
"1365","1365","835 Huntington Ave opp Parker Hill Ave",,"42.333336","-71.109573",,,,
"1366","1366","Huntington Ave @ Riverway",,"42.33205","-71.112617",,,,
"1367","1367","Harvard St @ Kent St",,"42.333126","-71.118668",,,,
"1368","1368","Harvard St @ Linden St",,"42.33477","-71.119217",,,,
"1369","1369","Harvard St @ Aspinwall St",,"42.336113","-71.120613",,,,
"137","137","Charles Park Rd @ Rivermoor St",,"42.278976","-71.175613",,,,
"1370","1370","Harvard St opp Auburn St",,"42.337284","-71.121414",,,,
"1371","1371","Harvard St opp Vernon St",,"42.338127","-71.121353",,,,
"1372","1372","Harvard St @ Beacon St",,"42.341923","-71.12114",,,,
"1373","1373","Harvard St @ Babcock St",,"42.343479","-71.123367",,,,
"1374","1374","Harvard St @ Beals St",,"42.344711","-71.125694",,,,
"1375","1375","Harvard St @ Coolidge St",,"42.345806","-71.127571",,,,
"1376","1376","Harvard St opp Verndale St",,"42.348457","-71.129402",,,,
"1378","1378","Harvard Ave @ Commonwealth Ave",,"42.350105","-71.130753",,,,
"1379","1379","Harvard Ave @ Brighton Ave",,"42.352856","-71.131966",,,,
"138","138","Mt Vernon St @ Bay Side Expo Center",,"42.319981","-71.048782",,,,
"1381","1381","W Dedham St @ Washington St",,"42.340565","-71.071136",,,,
"13817","13817","525 Washington St",,"42.206779","-70.956245",,,,
"13818","13818","587 Washington St",,"42.20541","-70.953888",,,,
"13819","13819","Washington St opp West Lake Dr",,"42.203751","-70.950645",,,,
"1382","1382","43 W Dedham St",,"42.342079","-71.072922",,,,
"13820","13820","Washington St @ Winter Ct",,"42.201897","-70.946693",,,,
"13821","13821","Middle @ Winter St.",,"42.20068","-70.945969",,,,
"13822","13822","Middle @ Circuit Ave.",,"42.197468","-70.948616",,,,
"13823","13823","Middle St @ Tara Dr",,"42.194214","-70.94973",,,,
"13824","13824","Middle St opp Mediterranean Dr",,"42.189743","-70.952629",,,,
"13825","13825","561 Main St",,"42.187122","-70.955589",,,,
"13826","13826","Opp 650 Main St",,"42.184158","-70.955444",,,,
"13827","13827","Main St @ Adams Place",,"42.179005","-70.955383",,,,
"13828","13828","Opp 85 Columbian St",,"42.176273","-70.953545",,,,
"13829","13829","Opp 41 Columbian St",,"42.175274","-70.952187",,,,
"1383","1383","Dartmouth St @ Tremont St",,"42.342991","-71.073761",,,,
"13830","13830","Pleasant St @ Wilbur St",,"42.172756","-70.95401",,,,
"13831","13831","Opp 861 Main St",,"42.175289","-70.955368",,,,
"13832","13832","780 Main St",,"42.178848","-70.955261",,,,
"13833","13833","650 Main ST",,"42.184219","-70.955322",,,,
"13834","13834","Opp 561 Main St",,"42.187019","-70.955452",,,,
"13835","13835","Middle St @ Mediterranean Dr",,"42.189735","-70.952461",,,,
"13836","13836","Middle St @ Dixon St",,"42.193989","-70.949661",,,,
"13837","13837","Middle St opp Circuit Ave",,"42.197323","-70.948669",,,,
"13838","13838","Middle St. opp. Winter St.",,"42.200706","-70.945824",,,,
"13839","13839","Washington St opp Winter Ct",,"42.201916","-70.946503",,,,
"1384","1384","Dartmouth St @ Appleton St",,"42.345032","-71.074768",,,,
"13840","13840","Washington St @ West Lake Dr",,"42.203777","-70.950455",,,,
"13841","13841","576 Washington St",,"42.205452","-70.953758",,,,
"13842","13842","Washington St @ Avalon Dr",,"42.206779","-70.956055",,,,
"13843","13843","464 Washington St",,"42.208553","-70.957779",,,,
"13844","13844","Pleasant St @ Colonels Dr",,"42.198605","-70.924614",,,,
"13845","13845","Pleasant St @ Sanderson Ave",,"42.201851","-70.924606",,,,
"13846","13846","Pleasant St opp Granite Post Lane",,"42.204823","-70.924438",,,,
"13848","13848","Pleasant St @ Lorraine St",,"42.207054","-70.924599",,,,
"13849","13849","Pleasant St opp Lambert Ave",,"42.20908","-70.92482",,,,
"13850","13850","Pleasant St @ Raymond St",,"42.21146","-70.924461",,,,
"13851","13851","Pleasant St @ Riley Ave",,"42.211395","-70.924576",,,,
"13852","13852","Pleasant St @ Lambert Ave",,"42.209194","-70.924934",,,,
"13853","13853","Pleasant St @ Village Rd",,"42.207016","-70.924713",,,,
"13854","13854","Pleasant St @ Granite Post Lane",,"42.204948","-70.92453",,,,
"13855","13855","Pleasant St opp Sanderson Ave",,"42.201904","-70.924736",,,,
"13856","13856","Mutton Lane @ Old Stone Way",,"42.199238","-70.925522",,,,
"13857","13857","100 Mutton Lane",,"42.197632","-70.928307",,,,
"13858","13858","1197 Washington St",,"42.196434","-70.927979",,,,
"13859","13859","851 Pleasant St",,"42.196571","-70.925842",,,,
"1389","1389","Boylston St opp Gloucester St",,"42.34837","-71.083519",,,,
"139","139","263 Mt Vernon St @ St Christopher's Church",,"42.319324","-71.04686",,,,
"1395","1395","Dartmouth St @ Appleton St",,"42.345169","-71.074966",,,,
"13959","13959","Franklin St @ Guild St",,"42.242504","-71.003456",,,,
"1396","1396","Dartmouth St @ Tremont St",,"42.342899","-71.073845",,,,
"1397","1397","Opp 43 W Dedham St",,"42.341938","-71.072922",,,,
"1398","1398","W Dedham St @ Washington St",,"42.340759","-71.070877",,,,
"1399","1399","Belvidere St @ Huntington Ave",,"42.345547","-71.081932",,,,
"14","14","Dorchester St @ Dorchester Ave",,"42.329617","-71.056816",,,,
"140","140","Mt Vernon St @ Paul A. Dever School",,"42.317928","-71.042801",,,,
"1400","1400","Cambridge St @ Prescott St",,"42.375233","-71.112869",,,,
"1401","1401","Cambridge St @ Trowbridge St",,"42.374897","-71.110199",,,,
"1402","1402","Cambridge St @ Dana St",,"42.374496","-71.107193",,,,
"1403","1403","Cambridge St @ Highland Ave",,"42.374161","-71.10453",,,,
"14030","14030","Franklin St opp Summer St.",,"42.203289","-71.007919",,,,
"14031","14031","Cambridge St @ Fayette St",,"42.373852","-71.102211",,,,
"14039","14039","Pond St @ Massina Rd",,"42.192482","-71.029251",,,,
"1404","1404","Cambridge St @ Hampshire St",,"42.373611","-71.100327",,,,
"1405","1405","Cambridge St @ Prospect St",,"42.373344","-71.098244",,,,
"14056","14056","88 North St",,"42.164883","-71.039536",,,,
"1406","1406","Cambridge St @ Norfork St",,"42.3731","-71.096359",,,,
"1407","1407","Cambridge St @ Elm St",,"42.372982","-71.095497",,,,
"1408","1408","Cambridge St @ Windsor St",,"42.372677","-71.093086",,,,
"1409","1409","Cambridge St @ Berkshire St",,"42.372261","-71.089882",,,,
"141","141","Alewife Station Busway",,"42.395428","-71.142483",,,,"place-alfcl"
"1410","1410","Cambridge St @ Cardinal Medeiros Ave",,"42.372089","-71.088577",,,,
"1411","1411","Cambridge St @ Sixth St",,"42.37162","-71.084923",,,,
"1412","1412","Cambridge St @ Fifth St",,"42.37141","-71.08326",,,,
"1413","1413","Cambridge St @ Sciarappa St",,"42.371197","-71.081635",,,,
"1414","1414","Cambridge St @ Third St",,"42.370987","-71.079971",,,,
"1415","1415","Lechmere Station",,"42.370772","-71.076536",,,,"place-lech"
"14150","14150","Lechmere Station - OUTBOUND",,"42.370772","-71.076536",,,,"place-lech"
"1416","1416","Cambridge St @ Third St",,"42.371094","-71.080025",,,,
"1417","1417","Cambridge St @ Sciarappa St",,"42.3713","-71.081688",,,,
"1418","1418","Cambridge St @ Fifth St",,"42.37151","-71.083321",,,,
"14180","14180","618 N Main St opp Vesey Rd",,"42.177822","-71.050316",,,,
"1419","1419","Cambridge St @ Sixth St",,"42.371681","-71.084656",,,,
"142","142","Mt Vernon St @ South Point Dr",,"42.317085","-71.040215",,,,
"1420","1420","Cambridge St @ Lambert St",,"42.372017","-71.08725",,,,
"1421","1421","Cambridge St @ Berkshire St",,"42.372364","-71.089943",,,,
"14211","14211","Central Ave @ Central Ave Station",,"42.270187","-71.073158",,,,
"1422","1422","Cambridge St @ Windsor St",,"42.37278","-71.09314",,,,
"14225","14225","S Main St opp Woodlawn Rd",,"42.143818","-71.041412",,,,
"1423","1423","Cambridge St @ Norfork St",,"42.373161","-71.0961",,,,
"14233","14233","Main St @ Demarco Park",,"42.134274","-71.039589",,,,
"1424","1424","Cambridge St @ Prospect St",,"42.373409","-71.097977",,,,
"1425","1425","Cambridge St @ Springfield St",,"42.373703","-71.100327",,,,
"1426","1426","Cambridge St opp Fayette St",,"42.373959","-71.102264",,,,
"1427","1427","Cambridge St @ Camelia Ave",,"42.374325","-71.105019",,,,
"1428","1428","Cambridge St opp Dana St",,"42.374557","-71.106926",,,,
"1429","1429","Cambridge St @ Trowbridge St",,"42.374958","-71.109932",,,,
"143","143","Boylston St @ Clarendon St",,"42.350605","-71.075287",,,,
"1430","1430","Felton St @ Cambridge St",,"42.375061","-71.112335",,,,
"14301","14301","Pearl St @ Hancock St",,"42.202202","-71.00486",,,,
"14302","14302","Pearl St @ Ivory Plaza",,"42.203308","-70.99839",,,,
"1431","1431","Broadway @ Felton St",,"42.373966","-71.112663",,,,
"1432","1432","Arsenal St @ Irving St",,"42.364769","-71.178879",,,,
"14320","14320","Adams st @ Whitwell St",,"42.253082","-71.017288",,,,
"1433","1433","Arsenal St @ Beacon Pk",,"42.364548","-71.175438",,,,
"14331","14331","Edgehill Rd @ Hollis St",,"42.257145","-71.043633",,,,
"1434","1434","Arsenal St @ Beachwood Ave",,"42.364361","-71.173347",,,,
"1435","1435","Arsenal St @ Louise St",,"42.364174","-71.171181",,,,
"1436","1436","Arsenal St opp School St",,"42.363796","-71.166817",,,,
"1437","1437","Arsenal St @ Arsenal Ct",,"42.363586","-71.164825",,,,
"1438","1438","500 Arsenal St - Watertown + Arsenal Mall",,"42.362816","-71.158203",,,,
"14383","14383","Common St @ Hilltop St",,"42.252758","-71.025078",,,,
"144","144","Boylston St @ Berkeley St",,"42.351196","-71.073166",,,,
"1441","1441","Arsenal St opp Elm St",,"42.362583","-71.156128",,,,
"1442","1442","Arsenal St opp Arlington St",,"42.36227","-71.153366",,,,
"14423","14423","Shaw St @ Quintree Mall",,"42.232647","-70.979782",,,,
"1443","1443","Arsenal St @ Arlington St",,"42.362461","-71.153397",,,,
"1444","1444","Arsenal St @ Elm St",,"42.362724","-71.155655",,,,
"1445","1445","Arsenal St @ Watertown + Arsenal Mall",,"42.363125","-71.159447",,,,
"14460","14460","Highland Ave @ Salem Hospital",,"42.511692","-70.908997",,,,
"14464","14464","Highland Ave opp First St",,"42.506073","-70.919128",,,,
"14465","14465","Highland Ave @ Hawthorne Sq",,"42.504341","-70.922173",,,,
"14468","14468","Highland Ave opp Cedar Rd",,"42.497986","-70.930473",,,,
"1447","1447","Arsenal St opp Arsenal Ct Dr",,"42.363678","-71.16481",,,,
"14470","14470","Highland Ave @ Wal Mart",,"42.490749","-70.93576",,,,
"1448","1448","Arsenal St @ School St",,"42.363895","-71.166878",,,,
"14481","14481","Arsenal St opp VFW Post 1105",,"42.364159","-71.169899",,,,
"1449","1449","Arsenal St opp Louise St",,"42.364273","-71.171249",,,,
"145","145","Arlington St @ Saint James Ave",,"42.35112","-71.070442",,,,
"1450","1450","Arsenal St opp Beachwood Ave",,"42.36446","-71.173416",,,,
"1451","1451","Arsenal St opp  Beacon Pk",,"42.364639","-71.175423",,,,
"1452","1452","Arsenal St @ Irving St",,"42.364868","-71.178947",,,,
"14544","14544","Highland Ave opp Olde Village Dr",,"42.496082","-70.932236",,,,
"14546","14546","331 Highland Ave",,"42.500183","-70.927231",,,,
"14548","14548","Highland Ave @ Hawthorne Sq",,"42.504375","-70.921677",,,,
"14551","14551","Highland Ave @ Wilson St",,"42.50964","-70.910469",,,,
"14552","14552","Highland Ave @ Almeda St",,"42.510475","-70.909882",,,,
"14553","14553","Highland Ave opp Proctor St",,"42.513256","-70.90728",,,,
"14572","14572","Lynnfield St @ Honey Ln",,"42.515869","-70.971962",,,,
"14594","14594","Lynnfierld St @ Ralph Rd",,"42.512428","-70.982719",,,,
"146","146","Arlington St @ Isabella St",,"42.348824","-71.069534",,,,
"14609","14609","Margin St @ Shore Ave N",,"42.542267","-70.919212",,,,
"14612","14612","Water St opp Broad St",,"42.549541","-70.921478",,,,
"14614","14614","Endicott St @ Route 128",,"42.549042","-70.936371",,,,
"14618","14618","445 Washington St @ Worthington St.",,"42.245483","-71.175301",,,,
"1468","1468","Bowdoin St @ Geneva Ave",,"42.30352","-71.071274",,,,
"1469","1469","169 Bowdoin St opp Eunice St",,"42.304283","-71.06958",,,,
"147","147","Herald St @ Tremont St",,"42.347389","-71.068436",,,,
"1470","1470","Bowdoin St @ Norton St",,"42.305443","-71.067932",,,,
"1471","1471","Bowdoin St @ Hamilton St",,"42.306141","-71.067039",,,,
"14717","14717","American Legion Hwy @ Beach St - Bell Circle",,"42.409473","-71.002083",,,,
"1472","1472","Bowdoin St opp Elba Terr",,"42.307583","-71.065468",,,,
"14726","14726","Bennington St @ Wood Island Station",,"42.3796403","-71.02286539",,,,"place-wimnl"
"1473","1473","Bowdoin St @ Quincy St",,"42.30817","-71.064857",,,,
"14731","14731","Bowdoin St @ Adams St",,"42.308952","-71.064049",,,,
"1474","1474","Bowdoin St @ Winter St",,"42.310223","-71.062668",,,,
"14748","14748","Lynn Commuter Rail Busway",,"42.461872","-70.945961",,,,
"1475","1475","Hancock St @ Bowdoin St",,"42.311329","-71.06266",,,,
"14752","14752","Lewis St @ Basset St",,"42.465797","-70.930717",,,,
"1477","1477","116 Hancock St opp Howe St",,"42.312115","-71.063622",,,,
"1478","1478","Hancock St @ Rowell St",,"42.312691","-71.064476",,,,
"1479","1479","Hancock St @ Jerome  St",,"42.314754","-71.065773",,,,
"148","148","Herald St @ Washington St",,"42.346588","-71.06472",,,,
"1480","1480","Columbia Rd @ Hancock St",,"42.315914","-71.066139",,,,
"1481","1481","Dudley St @ Belden St",,"42.317543","-71.066086",,,,
"1482","1482","Dudley St @ Humphreys St",,"42.318401","-71.068108",,,,
"14822","14822","Humphrey St @ Alden Rd",,"42.469639","-70.896065",,,,
"1483","1483","Dudley St @ Burgess St",,"42.319496","-71.070541",,,,
"14831","14831","Dudley St opp Howard Ave",,"42.320118","-71.071144",,,,
"14836","14836","Mugford St @ Elm St",,"42.506237","-70.851822",,,,
"1484","1484","Dudley St @ E Cottage St",,"42.321522","-71.072166",,,,
"1485","1485","Dudley St @ Langdon St",,"42.323914","-71.073975",,,,
"1486","1486","Dudley St @ Magazine St",,"42.325394","-71.074997",,,,
"14860","14860","Humphrey St @ Winthrop Ave",,"42.482182","-70.889214",,,,
"14868","14868","Salem St @ Tedesco Golf Course",,"42.481739","-70.897308",,,,
"1487","1487","Dudley St @ Hampden St",,"42.32626","-71.075409",,,,
"14875","14875","Paradise Rd @ Lou Rudolph Way",,"42.479607","-70.90538",,,,
"1488","1488","Dudley St @ Adams St",,"42.327686","-71.077263",,,,
"1489","1489","Dudley St @ Dearborn St",,"42.328537","-71.079124",,,,
"1490","1490","Dudley St @ Winslow St",,"42.328533","-71.08139",,,,
"1491","1491","Dudley St @ Warren St",,"42.328693","-71.083321",,,,
"14925","14925","Washington St @ Blaney Ave",,"42.520802","-70.934776",,,,
"14929","14929","Main St @ Howley St",,"42.522896","-70.919662",,,,
"1493","1493","Dudley St @ Greenville St",,"42.328449","-71.081009",,,,
"14935","14935","133 Main St.",,"42.522923","-70.920242",,,,
"14936","14936","Washington St @ Lincoln Pl",,"42.52113","-70.926849",,,,
"1494","1494","Dudley St @ Mt Pleasant Ave",,"42.328465","-71.079384",,,,
"14940","14940","79 Lynnfield St opp Norfolk Ave",,"42.516739","-70.951065",,,,
"1495","1495","Dudley St @ Adams St",,"42.327747","-71.077522",,,,
"1496","1496","381 Dudley St opp Hampden St",,"42.326149","-71.075447",,,,
"1497","1497","Dudley St @ Blue Hill Ave",,"42.325092","-71.074959",,,,
"1498","1498","Dudley St @ Dennis St",,"42.323811","-71.074036",,,,
"1499","1499","Dudley St @ W Cottage St",,"42.321445","-71.072273",,,,
"15","15","Dorchester St @ Vinton St",,"42.330723","-71.054543",,,,
"150","150","Broadway Station - Red Line",,"42.342622","-71.056967",,,,"place-brdwy"
"1500","1500","Dudley St @ Howard Ave",,"42.320198","-71.071396",,,,
"15002","15002","High St @ Bradlee Rd",,"42.418777","-71.111443",,,,
"1501","1501","Dudley St @ Magnolia St",,"42.318844","-71.069542",,,,
"1503","1503","Dudley St @ Columbia Rd",,"42.317085","-71.065338",,,,
"15038","15038","George St @ Burget Ave",,"42.412861","-71.116524",,,,
"1504","1504","Hancock St @ Bird St",,"42.314903","-71.065956",,,,
"15045","15045","Spruce St @ Market Basket",,"42.395203","-71.039742",,,,
"15046","15046","Spruce St @ Williams St",,"42.392525","-71.044418",,,,
"15047","15047","Captains Row @ Commandants Way",,"42.391762","-71.047493",,,,
"15048","15048","150 Captains Row",,"42.390873","-71.045685",,,,
"15049","15049","Captains Row @ Boatswains Way",,"42.38847","-71.046013",,,,
"1505","1505","Hancock St @ Glendale St",,"42.313622","-71.065308",,,,
"15050","15050","5 Admirals Way",,"42.38895","-71.046738",,,,
"15052","15052","Commandants Way @ Williams St",,"42.392334","-71.044533",,,,
"15053","15053","45 Spruce St",,"42.393658","-71.042213",,,,
"15054","15054","100 Everett Ave",,"42.394302","-71.03936",,,,
"15055","15055","Spruce St @ Everett Ave",,"42.395164","-71.039597",,,,
"15058","15058","Boston Regional Medical Ctr",,"42.451015","-71.087944",,,,
"15059","15059","Woodland Rd @ Molyneaux Circle",,"42.442623","-71.094246",,,,
"1506","1506","Hancock St @ Trull St",,"42.312691","-71.064651",,,,
"15060","15060","Highland Ave @ Sturges St",,"42.440769","-71.091911",,,,
"15061","15061","Highland Ave @ Waddel St",,"42.438526","-71.089149",,,,
"1507","1507","Hancock St @ Howe St",,"42.312008","-71.063652",,,,
"1508","1508","Hancock St @ Bowdoin St",,"42.310272","-71.062828",,,,
"15088","15088","Harrison Ave opp. East Springfield St.",,"42.335426","-71.074448",,,,
"15089","15089","E Concord St @ Albany St",,"42.335186","-71.071823",,,,
"1509","1509","Bowdoin St @ Tovar St",,"42.310116","-71.063141",,,,
"15094","15094","Washington St @ Savoy St",,"42.342022","-71.067924",,,,
"15095","15095","Washington St @ Herald St",,"42.346516","-71.064552",,,,
"1510","1510","Bowdoin St @ Hendry St",,"42.308826","-71.064323",,,,
"15100","15100","St Peters Sq @ Church",,"42.308113","-71.064369",,,,
"1511","1511","Bowdoin St @ Quincy St",,"42.308182","-71.06501",,,,
"1512","1512","Bowdoin St @ Hamilton St",,"42.306339","-71.066978",,,,
"1513","1513","Bowdoin St @ Olney St",,"42.305305","-71.068298",,,,
"1514","1514","Bowdoin St @ Eunice St",,"42.304306","-71.069725",,,,
"1515","1515","Bowdoin St @ Geneva Ave",,"42.303513","-71.071426",,,,
"15176","15176","Washington St @ Worcester St",,"42.337368","-71.075905",,,,
"1518","1518","Brookline Ave opp Yawkey Way",,"42.346909","-71.098923",,,,
"1519","1519","Brookline Ave @ Fullerton St",,"42.344788","-71.101151",,,,
"152","152","W Broadway @ A St",,"42.341698","-71.05542",,,,
"1520","1520","Brookline Ave @ Park Dr",,"42.343441","-71.102577",,,,
"15201","15201","Preble St @ Rogers St",,"42.329235","-71.055389",,,,
"1521","1521","Brookline Ave @ Longwood Ave",,"42.33884","-71.10746",,,,
"15216","15216","Centre @ Colbert St",,"42.287582","-71.146584",,,,
"1523","1523","Brookline Ave @ Francis St",,"42.336906","-71.109512",,,,
"15235","15235","Washington St @ Rockvale Circle",,"42.307663","-71.106224",,,,
"15236","15236","Washington St @ Sylvia St",,"42.310581","-71.103348",,,,
"1524","1524","Brookline Ave @ Aspinwall Ave",,"42.334839","-71.111671",,,,
"15241","15241","Centre St @ Louders Ln",,"42.30587","-71.124466",,,,
"1525","1525","Brookline Ave @ Pearl St",,"42.332817","-71.113831",,,,
"15256","15256","Centre St @ Manthorne St",,"42.287323","-71.14994",,,,
"1526","1526","Washington St @ Pearl St",,"42.331902","-71.116615",,,,
"1527","1527","Walnut St @ High St",,"42.331284","-71.117836",,,,
"1528","1528","High St opp Edgehill Rd",,"42.32769","-71.119347",,,,
"1529","1529","High St @ Oakland Rd",,"42.326283","-71.120224",,,,
"15291","15291","High St @ Cypress St",,"42.324863","-71.121399",,,,
"153","153","W Broadway @ B St",,"42.340656","-71.05381",,,,
"1530","1530","Cypress St opp Henry St",,"42.325439","-71.121895",,,,
"1531","1531","Cypress St @ Rice St",,"42.327179","-71.124168",,,,
"1532","1532","Cypress St @ Walnut St",,"42.328453","-71.125809",,,,
"1533","1533","Boylston St @ Clark Rd",,"42.329754","-71.128525",,,,
"1534","1534","Boylston St @ Sumner Rd",,"42.329006","-71.132782",,,,
"1535","1535","Boylston St  @ Chestnut Hill Av",,"42.326569","-71.142456",,,,
"15351","15351","Boylston St @ Timon Ave",,"42.32655","-71.145256",,,,
"1536","1536","Boylston St @ Reservoir Rd",,"42.326698","-71.148018",,,,
"15367","15367","Main St @ Pleasant St",,"42.425987","-71.067596",,,,
"1537","1537","Opp 850 Boylston St",,"42.326836","-71.150154",,,,
"1538","1538","Opp 910 Boylston St",,"42.326359","-71.153969",,,,
"1539","1539","Boylston St @ Norfolk Rd",,"42.324772","-71.15921",,,,
"154","154","W Broadway @ D St",,"42.338818","-71.050972",,,,
"1540","1540","Boylston St @ Hammond St",,"42.32362","-71.163925",,,,
"1541","1541","Boylston St @ Randolph Rd",,"42.324501","-71.159065",,,,
"1542","1542","910 Boylston St",,"42.326096","-71.153862",,,,
"1543","1543","850 Boylston St",,"42.326508","-71.149628",,,,
"15431","15431","Centre St @ Jackson St",,"42.425476","-71.070335",,,,
"1544","1544","Opp 763 Boylston St",,"42.326286","-71.145485",,,,
"1545","1545","Boylston St @ Heath St",,"42.326237","-71.142654",,,,
"1546","1546","Boylston St @ Warren St",,"42.32872","-71.132622",,,,
"1547","1547","Boylston St @ Kennard Rd",,"42.329506","-71.128426",,,,
"1548","1548","Cypress St @ Milton Rd",,"42.329479","-71.126137",,,,
"1549","1549","Cypress St @ Walnut",,"42.32856","-71.126038",,,,
"155","155","W Broadway @ E St",,"42.337666","-71.049179",,,,
"1550","1550","Cypress St @ Kendall St",,"42.327282","-71.124397",,,,
"1551","1551","Cypress St @ Franklin St",,"42.325569","-71.122292",,,,
"1552","1552","High St @ Cypress St",,"42.32481","-71.121277",,,,
"1553","1553","High St @ Highland Rd",,"42.32608","-71.120193",,,,
"1554","1554","High St @ Cumberland Ave",,"42.327877","-71.11911",,,,
"1555","1555","Washington @ Walnut",,"42.3316","-71.116158",,,,
"1556","1556","678 Brookline Ave opp Pearl St",,"42.332302","-71.114197",,,,
"15566","15566","19 Ferry St",,"42.404587","-71.047882",,,,
"1557","1557","Brookline Ave opp Aspinwall Ave",,"42.334835","-71.111519",,,,
"1558","1558","Brookline Ave @ Francis St",,"42.336899","-71.109367",,,,
"1559","1559","Brookline Ave @ Deaconess Rd",,"42.337891","-71.108337",,,,
"156","156","W Broadway @ F St",,"42.336678","-71.047646",,,,
"15618","15618","525 Washington St opp Marion St",,"42.243904","-71.176682",,,,
"1562","1562","132 Brookline Ave opp Fullerton St",,"42.34478","-71.101006",,,,
"15625","15625","Everett Ave @ Revere Beach Pkwy",,"42.402653","-71.041771",,,,
"1563","1563","Brookline Ave @ Yawkey Way",,"42.346706","-71.098984",,,,
"1564","1564","Brookline Ave @ Newbury St",,"42.348389","-71.097244",,,,
"15645","15645","Everett Ave @ Revere Beach Pkwy",,"42.402081","-71.041718",,,,
"15649","15649","Summit Ave @ Lafayette Ave",,"42.402435","-71.033714",,,,
"1565","1565","Franklin Park Loop @ Zoo entrance",,"42.302269","-71.086388",,,,
"15650","15650","Summit Ave @ Chelsea Soldiers Home",,"42.40184","-71.030731",,,,
"15651","15651","Summit Ave @ Warren Ave",,"42.401447","-71.029114",,,,
"1566","1566","Blue Hill Ave opp Warren St",,"42.309635","-71.082451",,,,
"15660","15660","Blue Hill Ave @ Devon St",,"42.310738","-71.081566",,,,
"15661","15661","Blue Hill Ave @ Lawrence Ave",,"42.313412","-71.079498",,,,
"1567","1567","Blue Hill Ave @ Intervale St",,"42.31179","-71.080742",,,,
"1568","1568","Blue Hill Ave @ Creston St",,"42.312588","-71.080093",,,,
"1569","1569","Blue Hill Ave @ Quincy St",,"42.314507","-71.078819",,,,
"157","157","W Broadway @ Dorchester St",,"42.335529","-71.045822",,,,
"1570","1570","Blue Hill Ave @ Woodcliff St",,"42.316135","-71.078102",,,,
"1571","1571","Blue Hill Ave @ Ingleside St",,"42.317329","-71.077927",,,,
"1572","1572","Blue Hill Ave @ Julian St",,"42.319191","-71.07769",,,,
"1573","1573","Blue Hill Ave @ W Cottage St",,"42.320339","-71.077682",,,,
"1574","1574","Blue Hill Ave @ Moreland St",,"42.322788","-71.076668",,,,
"1575","1575","Blue Hill Ave @ Winthrop St",,"42.323517","-71.076157",,,,
"1576","1576","Blue Hill Ave @ Dudley St",,"42.325134","-71.07502",,,,
"1577","1577","Blue Hill Ave @ Mt Pleasant Ave",,"42.325134","-71.075172",,,,
"15775","15775","Revere St @ Sachem St",,"42.418678","-70.989769",,,,
"15778","15778","Ocean Ave @  Chester Ave",,"42.41275","-70.990715",,,,
"1578","1578","Blue Hill Ave @ Winthrop St",,"42.323505","-71.076302",,,,
"15787","15787","Beach St @ Cary Ave",,"42.409309","-71.006889",,,,
"1579","1579","Blue Hill Ave opp Stafford St",,"42.322151","-71.077232",,,,
"158","158","442 W Broadway",,"42.336231","-71.046722",,,,
"1580","1580","Blue Hill Ave @ Irwin St",,"42.321136","-71.077606",,,,
"1581","1581","Blue Hill Ave @ Clifford St",,"42.318909","-71.077812",,,,
"1582","1582","Blue Hill Ave @ Edgewood St",,"42.317165","-71.078087",,,,
"15820","15820","Blue Hill Ave @ Maywood St",,"42.315964","-71.07827",,,,
"1583","1583","Blue Hill Ave @ Quincy St",,"42.314713","-71.078835",,,,
"15832","15832","267 Cooledge St",,"42.417473","-71.018265",,,,
"1584","1584","Blue Hill Ave @ Gaston St",,"42.313324","-71.079681",,,,
"1585","1585","Blue Hill Ave @ Brunswick St",,"42.311462","-71.081146",,,,
"15857","15857","Sumner St @ Orleans St",,"42.368122","-71.038155",,,,
"1586","1586","Blue Hill Av @ Stanwood St",,"42.310158","-71.082169",,,,
"1587","1587","Franklin Park Zoo @ Entrance",,"42.303139","-71.085945",,,,
"1589","1589","Western Ave @ Riverdale St",,"42.363163","-71.132034",,,,
"159","159","W Broadway @ F St",,"42.336945","-71.047874",,,,
"1592","1592","Ruggles St @ Tremont St",,"42.334743","-71.088478",,,,
"1593","1593","Ruggles St @ Shawmut Ave",,"42.332088","-71.084206",,,,
"15940","15940","Grove St @ Walnut St",,"42.453182","-71.064796",,,,
"15945","15945","Lebanaon St @ Naples Rd",,"42.445641","-71.057007",,,,
"15969","15969","Washington St opp Brazil St",,"42.441883","-71.071892",,,,
"15970","15970","Pleasant St opp Converse Ln",,"42.446091","-71.071747",,,,
"15971","15971","Pleasant St opp Gould St",,"42.447987","-71.071533",,,,
"15974","15974","Pleasant St opp Everett St",,"42.450619","-71.070389",,,,
"15975","15975","Wyoming Ave @ Cottage St",,"42.452847","-71.071899",,,,
"15976","15976","Wyoming Ave @ Cleveland St",,"42.453712","-71.074852",,,,
"15977","15977","Wyoming Ave @ Whittier St",,"42.454334","-71.076881",,,,
"15978","15978","Wyoming Ave @ Ravine Terr",,"42.454887","-71.078758",,,,
"15979","15979","Wyoming Ave @ Fellsway E",,"42.456131","-71.083107",,,,
"15982","15982","Main St @ South St",,"42.465908","-71.100693",,,,
"15983","15983","550 Main St",,"42.470478","-71.100739",,,,
"15984","15984","Main St @ Summer St",,"42.474133","-71.100662",,,,
"15985","15985","Main St @ Hancock St",,"42.47636","-71.100418",,,,
"15986","15986","Main St @ Franklin St",,"42.478794","-71.100113",,,,
"15987","15987","Main St @ William St",,"42.484909","-71.100044",,,,
"15988","15988","Main St @ Elm St",,"42.486996","-71.09993",,,,
"15989","15989","Redstone Shopping Center",,"42.495045","-71.100685",,,,
"15990","15990","159 Main St opp Collincote St",,"42.491711","-71.100601",,,,
"15992","15992","Main St opp Franklin St",,"42.478867","-71.100342",,,,
"15993","15993","Main St @ Hancock St",,"42.476555","-71.100639",,,,
"15994","15994","Main St @ Summer St",,"42.473923","-71.10096",,,,
"15995","15995","Main St @ Graystone Rd",,"42.470474","-71.100929",,,,
"15999","15999","Wyoming Ave @ Fellsway E",,"42.456028","-71.083061",,,,
"16","16","Dorchester St @ Old Colony Ave",,"42.331638","-71.05291",,,,
"160","160","W Broadway @ E St",,"42.337936","-71.0494",,,,
"1600","1600","Lexington St @ College Farm Rd",,"42.399921","-71.234291",,,,
"16000","16000","Wyoming Ave @ Ravine Rd",,"42.454762","-71.078728",,,,
"16001","16001","Wyoming Ave @ Melbourne Ave",,"42.454311","-71.077156",,,,
"1601","1601","Opp 617 Lexington St - Waltham HS",,"42.396557","-71.235847",,,,
"1602","1602","Lexington St opp Stanley Rd",,"42.394764","-71.236839",,,,
"1604","1604","Lexington St @ Curve St",,"42.393124","-71.23774",,,,
"1605","1605","Lexington St @ Lincoln St",,"42.391678","-71.238564",,,,
"1606","1606","Bacon St @ Clark Ln",,"42.388008","-71.240189",,,,
"1607","1607","Bacon St @ Greenwood Ln",,"42.386673","-71.240623",,,,
"1608","1608","Bacon St @ Kendall Pk",,"42.385002","-71.241165",,,,
"1609","1609","Bacon St @ Dale St",,"42.384132","-71.24144",,,,
"161","161","W Broadway @ D St",,"42.338928","-71.050949",,,,
"16102","16102","Congress St opp Shetland Pk",,"42.51775","-70.88942",,,,
"16118","16118","Loring Ave @ Station Rd",,"42.497578","-70.894997",,,,
"1612","1612","W Boundary Rd @ Cedarcrest Ln",,"42.26236","-71.146599",,,,
"16126","16126","1000 Loring Ave",,"42.485146","-70.90374",,,,
"1613","1613","W Boundary Rd @ Ohrenberger School",,"42.261063","-71.147072",,,,
"16131","16131","Essex St @ Jackson Pk",,"42.478054","-70.918442",,,,
"16132","16132","Essex St opp Burrill St",,"42.475937","-70.921707",,,,
"1614","1614","W Boundary Rd @ Georgetown Dr",,"42.259331","-71.145546",,,,
"1615","1615","Margaretta Dr @ Georgetown Dr",,"42.257618","-71.145226",,,,
"16156","16156","Opp 1000 Loring Ave",,"42.485065","-70.903633",,,,
"1616","1616","Margaretta Dr @ Crownpoint Dr",,"42.257423","-71.146393",,,,
"1617","1617","Opp 67 Crown Point Dr",,"42.257217","-71.146431",,,,
"16170","16170","Loring Ave @ Salem State",,"42.50473","-70.89119",,,,
"16177","16177","Lafayette @ Leavitt St",,"42.514473","-70.892456",,,,
"1618","1618","84 Georgetown Pl",,"42.255707","-71.143814",,,,
"162","162","W Broadway @ C St",,"42.339931","-71.05249",,,,
"1620","1620","Georgetown Dr @ Margaretta Rd",,"42.257488","-71.144936",,,,
"1621","1621","W Boundary Rd @ Georgetown Dr",,"42.259357","-71.145401",,,,
"1622","1622","W Boundary Rd @ Ohrenberger School",,"42.261135","-71.146957",,,,
"1623","1623","W Boundary Rd @ Cedarcrest Rd",,"42.262695","-71.146362",,,,
"1627","1627","Liberty St @ Water St",,"42.240601","-71.005959",,,,
"1628","1628","Liberty St @ Quincy St",,"42.239262","-71.007202",,,,
"1629","1629","Liberty St @ Brook Rd",,"42.238781","-71.008034",,,,
"163","163","W Broadway @ B St",,"42.340923","-71.054031",,,,
"1630","1630","Trafford St @ Brooks Ave",,"42.238132","-71.009918",,,,
"16304","16304","High St opp Harvard Ave",,"42.421291","-71.132973",,,,
"16305","16305","High St @ Johnson Ave",,"42.42157","-71.13485",,,,
"1631","1631","Trafford St @ Taber St",,"42.236874","-71.010941",,,,
"16316","16316","High St @ Harvard Ave",,"42.421227","-71.133224",,,,
"1632","1632","Opp 86 Trafford St",,"42.236504","-71.011307",,,,
"1633","1633","Centre St @ Intervale St",,"42.236366","-71.013359",,,,
"1634","1634","Centre St @ Brooks Ave",,"42.238064","-71.015083",,,,
"1635","1635","Centre St @ Granite St",,"42.239738","-71.016754",,,,
"16358","16358","River St @ Walter St",,"42.257523","-71.119476",,,,
"1636","1636","Centre St @ Kent St",,"42.241009","-71.018784",,,,
"16360","16360","River St @ Maida Terr",,"42.261101","-71.113312",,,,
"16361","16361","Metropolitan Ave @ Central Ave",,"42.263905","-71.118195",,,,
"16364","16364","River St @ Holmfield Ave",,"42.263962","-71.101097",,,,
"16365","16365","River St @ Tesla St",,"42.266453","-71.097191",,,,
"1637","1637","West St @ Centre St",,"42.241993","-71.021492",,,,
"16372","16372","River St @ Blake St",,"42.263412","-71.106689",,,,
"1638","1638","West St @ Lyons St",,"42.241592","-71.022919",,,,
"1639","1639","West St @ Ida St",,"42.240761","-71.024086",,,,
"16391","16391","Fairmont Ave opp Nott St",,"42.254223","-71.119858",,,,
"1640","1640","West St @ Doble St",,"42.2393","-71.025261",,,,
"16403","16403","Summit St @ Neponset Ave",,"42.247307","-71.117851",,,,
"1641","1641","West St @ Hayden St",,"42.238609","-71.025536",,,,
"1642","1642","West St @ Wickford Ln",,"42.237225","-71.02639",,,,
"1643","1643","West St @ Willard St",,"42.235783","-71.02845",,,,
"16434","16434","Cummins Hwy @ American Legion Hwy",,"42.278591","-71.116127",,,,
"1644","1644","Willard St opp Ames St",,"42.234814","-71.02861",,,,
"1645","1645","Opp 710 Willard St",,"42.233791","-71.028931",,,,
"16458","16458","Cummins Hwy @ Fairway St",,"42.268349","-71.09523",,,,
"16459","16459","Cummins Hwy @ Regis Rd",,"42.269661","-71.097054",,,,
"1646","1646","Willard St opp St Moritz Ave",,"42.232086","-71.029953",,,,
"16466","16466","Hyde Park Ave @ Milton St",,"42.239098","-71.132172",,,,
"1647","1647","Willard St opp Thistle Rd",,"42.229794","-71.030998",,,,
"16479","16479","Hyde Park Ave @ Neponset Ave",,"42.286316","-71.118599",,,,
"1648","1648","859 Willard St",,"42.227718","-71.031586",,,,
"1649","1649","Granite St @ Wood Rd",,"42.226154","-71.032005",,,,
"16495","16495","Hyde Park Ave opp Patten St",,"42.295067","-71.116943",,,,
"16498","16498","Hyde Park Ave @ Metropolitan Ave",,"42.270477","-71.120682",,,,
"1650","1650","Granite St opp S Shore Plaza",,"42.219822","-71.027557",,,,
"16500","16500","960 American Legion Hwy",,"42.274349","-71.116562",,,,
"16535","16535","Otis St @ Summer St",,"42.354244","-71.058502",,,,
"16537","16537","Essex St @ Kingston St",,"42.352451","-71.059242",,,,
"16538","16538","Bedford St @ Chauncy St",,"42.353275","-71.059639",,,,
"16539","16539","Milk St @ Devonshire St",,"42.35677","-71.057434",,,,
"16540","16540","Franklin St @ Washington St",,"42.356281","-71.059364",,,,
"16551","16551","Congress St @ Franklin St",,"42.355518","-71.055611",,,,
"1657","1657","Mystic St @ Rangely Rd",,"42.420452","-71.153",,,,
"1658","1658","Mystic St @ Farrington St",,"42.421455","-71.153755",,,,
"1659","1659","201 Mystic St",,"42.422245","-71.153801",,,,
"1660","1660","Mystic St @ Davis Ave",,"42.423859","-71.15287",,,,
"16606","16606","Beach Rd @ Surfside Rd",,"42.45755","-70.935806",,,,
"1661","1661","Mystic St @ Beverley Rd",,"42.426434","-71.15197",,,,
"16616","16616","Flash Rd @ Castle Rd",,"42.423439","-70.934769",,,,
"16618","16618","Washington St @ Richards St",,"42.24337","-71.177139",,,,
"16619","16619","Castle Rd @ Range Rd",,"42.421963","-70.934746",,,,
"1662","1662","355 Mystic St",,"42.429375","-71.153152",,,,
"1663","1663","449 Mystic St - Winchester Line",,"42.434586","-71.155357",,,,
"16642","16642","Nahant Rd opp Greenlawn Cemetery",,"42.428078","-70.927467",,,,
"1665","1665","Cambridge St @ Robinson Pk",,"42.43932","-71.152466",,,,
"16653","16653","Market St @ Commuter Rail",,"42.46207","-70.947266",,,,
"1667","1667","65 Cambridge St @ Winchester Boat Club",,"42.442181","-71.152",,,,
"16683","16683","Broadway @ Mayfair St",,"42.490906","-70.958626",,,,
"1669","1669","Cambridge St @ Glen Rd",,"42.444752","-71.152176",,,,
"1670","1670","Cambridge St @ Church St",,"42.446602","-71.153198",,,,
"1671","1671","125 Cambridge St opp Oneida Rd",,"42.447521","-71.15416",,,,
"1672","1672","Cambridge St @ Foxcroft Rd",,"42.449078","-71.155273",,,,
"1673","1673","Cambridge St @ Wildwood St",,"42.451626","-71.156868",,,,
"16730","16730","323 Walnut St",,"42.480217","-71.006706",,,,
"16734","16734","Walnut St @ Sterling St",,"42.47382","-70.989204",,,,
"16739","16739","Kings Hill Dr @ Castle Rising Ct",,"42.470181","-70.99115",,,,
"1674","1674","Cambridge St @ Pond St",,"42.455879","-71.159508",,,,
"1675","1675","353 Cambridge St",,"42.458069","-71.161232",,,,
"1676","1676","376 Cambridge Rd - Woburn Line",,"42.459652","-71.163635",,,,
"1677","1677","Cambridge Rd @ NE Rehab Hospital",,"42.46093","-71.165771",,,,
"16773","16773","Union St @ Broad St",,"42.46196","-70.944939",,,,
"1678","1678","Cambridge Rd @ Country Club Rd",,"42.46138","-71.168762",,,,
"1679","1679","254 Cambridge Rd",,"42.461391","-71.171196",,,,
"168","168","Tremont St @ Appleton St",,"42.346714","-71.069115",,,,
"1680","1680","Cambridge Rd opp Parker St",,"42.463497","-71.17392",,,,
"1681","1681","Cambridge Rd @ Crawford Dr",,"42.46521","-71.175407",,,,
"1682","1682","Cambridge Rd @ Litchfield Dr",,"42.466179","-71.176453",,,,
"1683","1683","Cambridge Rd @ Russell St",,"42.467953","-71.178329",,,,
"1684","1684","Cambridge Rd opp Revere Rd",,"42.470573","-71.180054",,,,
"1685","1685","Cambridge Rd @ Surrey Circle",,"42.472866","-71.180397",,,,
"1686","1686","Cambridge Rd @ Locust St",,"42.475552","-71.182137",,,,
"1687","1687","Cambridge Rd @ Bedford Rd",,"42.479942","-71.185204",,,,
"1688","1688","Cambridge St @ Ray Ave",,"42.481361","-71.186615",,,,
"16881","16881","26 Cambridge St @ Cafe Escardrille",,"42.482128","-71.187408",,,,
"1689","1689","Cambridge St opp Lincoln Knoll Ln",,"42.482841","-71.188232",,,,
"1690","1690","Cambridge St @ Wall St",,"42.485687","-71.18988",,,,
"16901","16901","Van De Graff Dr",,"42.481701","-71.199287",,,,
"1691","1691","Cambridge St @ Burlington Mall Rd",,"42.491165","-71.192703",,,,
"1692","1692","76 Cambridge St",,"42.492424","-71.193672",,,,
"1693","1693","Cambridge St @ Birchcrest St",,"42.501183","-71.194778",,,,
"1694","1694","Cambridge St @ Cedarwood Ln",,"42.501801","-71.19503",,,,
"1695","1695","Cambridge St @ Bedford St",,"42.504906","-71.195786",,,,
"1696","1696","Cambridge St @ Olympian Ave",,"42.506409","-71.195702",,,,
"1697","1697","Cambridge St @ Winn St",,"42.510059","-71.199211",,,,
"16971","16971","Cambridge St opp Terry Ave",,"42.510715","-71.2005",,,,
"1698","1698","Cambridge St @ Skilton Ln",,"42.512493","-71.202026",,,,
"1699","1699","Cambridge St @ Pontos Ave",,"42.514999","-71.205009",,,,
"17","17","Dorchester St @ E 8th St",,"42.332729","-71.051147",,,,
"17000","17000","325 Boylston St",,"42.319439","-71.180977",,,,
"17001","17001","280 Boylston St",,"42.319286","-71.179314",,,,
"17002","17002","Opp 40 Second Ave",,"42.394691","-71.264603",,,,
"17003","17003","293 Second Ave",,"42.388367","-71.26461",,,,
"17005","17005","Bear Hill Rd  opp Second Ave",,"42.387104","-71.265579",,,,
"17006","17006","300 Bear Hill Rd",,"42.386253","-71.265739",,,,
"17007","17007","40 Second Ave  PAR Center",,"42.395481","-71.264282",,,,
"17008","17008","293 Bear Hill Rd",,"42.385967","-71.265099",,,,
"17009","17009","211 Bear Hill Rd",,"42.383171","-71.265457",,,,
"17011","17011","Wyman St @ Winter St",,"42.397114","-71.260826",,,,
"1706","1706","Blue Hill Ave @ Harvard St",,"42.294571","-71.088234",,,,
"1708","1708","Blue Hill Ave @ Paxton St",,"42.292271","-71.088997",,,,
"1709","1709","Blue Hill Ave @ Greenock St",,"42.289654","-71.089874",,,,
"17091","17091","Terminal A",,"42.364403","-71.021484",,,,
"17093","17093","Terminal B Stop 2",,"42.36446","-71.018814",,,,
"17094","17094","Terminals C & D",,"42.367477","-71.018143",,,,
"17095","17095","Terminal E",,"42.370258","-71.020462",,,,
"17096","17096","Congress @ World Trade Center Sta",,"42.348125","-71.042221",,,,
"171","171","Berkeley St @ Columbus Ave",,"42.348583","-71.071716",,,,
"1710","1710","Blue Hill Ave @ Hansborough St",,"42.288002","-71.090408",,,,
"17100","17100","Dodge St @ Enon St",,"42.5826","-70.884438",,,,
"17101","17101","Opp 22 Enon St",,"42.584702","-70.884575",,,,
"17102","17102","Enon St @ Lakeview Ave",,"42.584625","-70.884682",,,,
"1711","1711","Blue Hill Ave @ Havelock St",,"42.28619","-71.091019",,,,
"1713","1713","Blue Hill Ave @ Goodale Rd",,"42.28244","-71.092278",,,,
"17130","17130","Blue Hill Ave opp Clarkwood St",,"42.280815","-71.092819",,,,
"1714","1714","Blue Hill Ave @ Wellington Hill St",,"42.279549","-71.093246",,,,
"17142","17142","Winter St @ Bridge St",,"42.526543","-70.891029",,,,
"17143","17143","Winter St @ Washingtom St",,"42.524929","-70.889664",,,,
"17144","17144","Hawthorne Blvd @ Essex St",,"42.522575","-70.890579",,,,
"1715","1715","Blue Hill Ave @ Hazelton St",,"42.278526","-71.093582",,,,
"17150","17150","Derby St @ Lafayette St",,"42.519566","-70.893234",,,,
"17153","17153","Hawthorne Blvd @ Derby St",,"42.520855","-70.890083",,,,
"17154","17154","Hawthorne Blvd @ Washington Sq S",,"42.522865","-70.890518",,,,
"17155","17155","Winter St @ Washington St",,"42.525017","-70.889572",,,,
"17156","17156","Winter St @ Bridge St",,"42.526649","-70.890984",,,,
"1716","1716","Blue Hill Ave @ Mattapan St",,"42.276592","-71.093719",,,,
"17166","17166","Cabot St @ Stone St",,"42.542892","-70.883522",,,,
"1717","1717","Blue Hill Ave @ Almont St",,"42.274197","-71.093803",,,,
"17170","17170","Cabot St @ Essex St",,"42.549183","-70.878059",,,,
"1718","1718","Blue Hill Ave @ Woodhaven St",,"42.273163","-71.093819",,,,
"1719","1719","Blue Hill Ave @ Regis Rd",,"42.271542","-71.093857",,,,
"1720","1720","Blue Hill Ave @ Mattapan Sq",,"42.268772","-71.093956",,,,
"1721","1721","Blue Hill Ave @ River St",,"42.26717","-71.093613",,,,
"1722","1722","1624 Blue Hill Ave @ Mattapan Sq",,"42.268818","-71.093521",,,,
"1723","1723","Blue Hill Ave @ Babson St",,"42.270264","-71.093468",,,,
"1724","1724","Blue Hill Ave opp Woodhaven St",,"42.272991","-71.093399",,,,
"1725","1725","1458 Blue Hill Ave opp Almont St",,"42.274933","-71.09333",,,,
"17255","17255","Boston St opp Ford St",,"42.477215","-70.957169",,,,
"1726","1726","Blue Hill Ave @ Norfolk St",,"42.276711","-71.093246",,,,
"1728","1728","Blue Hill Ave @ Wilmore St",,"42.278408","-71.093147",,,,
"17288","17288","Boston @ Ford St",,"42.477009","-70.957146",,,,
"1729","1729","Blue Hill Ave @ Evelyn St",,"42.279999","-71.092621",,,,
"17291","17291","Parkland Ave @ B Street",,"42.478973","-70.970016",,,,
"173","173","Saint James Ave @ Clarendon St",,"42.349949","-71.074646",,,,
"1730","1730","Blue Hill Ave @ Woolson St",,"42.282288","-71.091866",,,,
"1731","1731","Blue Hill Ave @ Morton St",,"42.284134","-71.091293",,,,
"17316","17316","Chestnut St opp Peach St",,"42.475033","-70.945",,,,
"1732","1732","Blue Hill Ave @ Woodrow Ave",,"42.28553","-71.090797",,,,
"17325","17325","Lynnfield St @ St Marys Cemetery",,"42.489819","-70.968925",,,,
"1733","1733","Blue Hill Ave @ Arbutus St",,"42.287979","-71.089996",,,,
"1734","1734","Blue Hill Ave @ Callender St",,"42.289597","-71.089447",,,,
"17347","17347","Lynnfield St @ Union Hospital",,"42.502354","-70.9795",,,,
"1735","1735","Blue Hill Ave @ Westview St",,"42.291309","-71.08889",,,,
"17354","17354","Lynnfield St @ St Marys Cemetery",,"42.489742","-70.968994",,,,
"1736","1736","Blue Hill Ave opp Health Ctr",,"42.294079","-71.087959",,,,
"1737","1737","Blue Hill Ave @ Talbot Ave",,"42.295116","-71.087654",,,,
"17370","17370","Goodridge St @ Memorial Pk Ave",,"42.476063","-70.946022",,,,
"1739","1739","Seaver St @ Maple St",,"42.306774","-71.087234",,,,
"17391","17391","Seaver St opp Maple St",,"42.306652","-71.087685",,,,
"174","174","Ring Rd @ Boylston St",,"42.348759","-71.080559",,,,
"1740","1740","Seaver St @ Elm Hill Ave",,"42.307613","-71.088814",,,,
"17401","17401","Seaver St opp Elm Hill Ave",,"42.307529","-71.089264",,,,
"1741","1741","Seaver St @ Humboldt Ave",,"42.309937","-71.091896",,,,
"17411","17411","Seaver St opp Humboldt Ave",,"42.309696","-71.09211",,,,
"17419","17419","Salem St @ Cutler Hwy",,"42.437477","-71.019775",,,,
"1742","1742","Seaver St @ Harold St",,"42.312111","-71.093323",,,,
"17421","17421","Seaver St opp Harold St",,"42.312","-71.093697",,,,
"17422","17422","Salem St opp Franklin",,"42.441536","-71.014679",,,,
"17429","17429","Lincoln Ave @ Charlotte Rd",,"42.448902","-71.006668",,,,
"1743","1743","Columbus Ave @ Walnut Ave",,"42.313549","-71.0951",,,,
"17449","17449","Summer St opp Raddin Grove Ave",,"42.459526","-70.978416",,,,
"17456","17456","81 Central Ave @ Granada Highlands",,"42.438049","-71.0298",,,,
"17463","17463","Central Ave @ Kennedy Dr",,"42.438156","-71.029755",,,,
"1747","1747","Heath St @ VA Hospital",,"42.327335","-71.108467",,,,
"1749","1749","Heath St opp Hayden St",,"42.326771","-71.107056",,,,
"175","175","Boylston St @ Dartmouth St",,"42.349974","-71.077447",,,,"place-coecl"
"1750","1750","Heath St @ Walden St",,"42.325981","-71.104729",,,,
"1751","1751","106 Heath St opp Bickford Ave",,"42.326328","-71.101936",,,,
"1752","1752","Heath St @ Parker St",,"42.326084","-71.100395",,,,
"1753","1753","34 Heath St opp Bromley St",,"42.325275","-71.09964",,,,
"1755","1755","Heath St @ Wensley St",,"42.326466","-71.100403",,,,
"1756","1756","107 Heath St opp Bickford Ave",,"42.326405","-71.102196",,,,
"17562","17562","Essex St opp School St",,"42.451019","-71.015633",,,,
"1757","1757","177 Heath St opp Walden St",,"42.326153","-71.105103",,,,
"1758","1758","Heath St opp Hennigan School",,"42.326401","-71.106224",,,,
"17591","17591","56 Main St",,"42.464485","-71.014587",,,,
"176","176","Dartmouth St opp Back Bay Sta",,"42.34735","-71.075727",,,,"place-bbsta"
"1760","1760","Heath St opp VA Hospital",,"42.327442","-71.108459",,,,
"1761","1761","Heath St @ S Huntington Ave",,"42.328681","-71.110559",,,,"place-hsmnl"
"1764","1764","Pearl St @ Cottage St",,"42.36232","-71.10527",,,,
"17645","17645","Washington St @ Lowell St",,"42.351105","-71.21051",,,,
"1765","1765","Pearl St @ Lawrence St",,"42.361187","-71.106514",,,,
"1766","1766","Pearl St @ Erie St",,"42.36058","-71.107193",,,,
"1767","1767","Pearl St @ Allston St",,"42.359097","-71.108788",,,,
"17670","17670","South St opp Old South St",,"42.363155","-71.259796",,,,
"1768","1768","Putnam ave @ Magazine St",,"42.359104","-71.110931",,,,
"1769","1769","Magazine St @ Chestnut St",,"42.358482","-71.111855",,,,
"177","177","Saint James Ave @ Arlington St",,"42.351051","-71.070503",,,,
"1770","1770","Magazine St @ Riverside Rd",,"42.356964","-71.11351",,,,
"1771","1771","Granite St @ Pearl St",,"42.355869","-71.111916",,,,
"17711","17711","Belmont St  @ Lexington St",,"42.380646","-71.189507",,,,
"1772","1772","Granite St @ Brookline St",,"42.35508","-71.110474",,,,
"1773","1773","Mountfort St @ Lenox St",,"42.349285","-71.109993",,,,
"1775","1775","Park Dr @ Beacon St",,"42.346741","-71.105255",,,,
"1777","1777","Brookline Ave @ Pilgrim Rd",,"42.342663","-71.103432",,,,
"17774","17774","1045 Trapelo Rd @ Sovereign Bank",,"42.411499","-71.235451",,,,
"1778","1778","Brookline Ave @ Short St",,"42.340446","-71.105713",,,,
"1779","1779","Longwood Ave @ Brookline Ave",,"42.338802","-71.107162",,,,
"178","178","Saint James Ave @ Dartmouth St",,"42.349377","-71.076958",,,,
"1780","1780","Longwood Ave @ Blackfan St",,"42.337658","-71.104988",,,,
"1784","1784","Ruggles St @ Huntington Ave",,"42.337429","-71.095078",,,,
"1785","1785","Ruggles St @ Annunciation Rd",,"42.336742","-71.093224",,,,
"17861","17861","Ruggles Sta - upper level",,"42.336377","-71.088961",,,,"place-rugg"
"17862","17862","Ruggles Station - Lane 1",,"42.336377","-71.088961",,,,"place-rugg"
"17863","17863","Ruggles Station - Lane 2",,"42.336377","-71.088961",,,,"place-rugg"
"1787","1787","Washington St @ Worcester St",,"42.337536","-71.075478",,,,
"17879","17879","Springs Rd opp Bldg 23",,"42.502449","-71.272362",,,,
"1788","1788","Washington St @ E Newton St",,"42.338776","-71.073677",,,,
"1789","1789","Washington St @ Mystic St",,"42.340405","-71.071198",,,,
"179","179","Ring Rd @ Huntington Ave",,"42.347858","-71.08007",,,,
"1790","1790","Harrison Ave @ Worcester Sq",,"42.335896","-71.074013",,,,
"1791","1791","Harrison Ave @ E Lenox St",,"42.333542","-71.077232",,,,
"17922","17922","Massachusetts Ave @ Park Ave",,"42.424267","-71.183128",,,,
"1793","1793","Huntington Ave @ Exeter St",,"42.34798","-71.078728",,,,
"1798","1798","Ruggles St @ Parker St",,"42.337074","-71.093819",,,,
"1799","1799","Ruggles St @ Huntington Ave",,"42.337536","-71.0951",,,,
"18","18","180 Dorchester St opp W 7th St",,"42.333603","-71.04953",,,,
"180","180","Bay St @ Auckland St",,"42.31115","-71.056725",,,,
"1800","1800","Louis Prang St @ Evans Way",,"42.338425","-71.097198",,,,
"1804","1804","Brookline Ave @ Longwood Ave",,"42.33902","-71.107117",,,,
"1805","1805","Brookline Ave opp Short St",,"42.340443","-71.105568",,,,
"1806","1806","Brookline Ave @ The Fenway",,"42.34264","-71.103287",,,,
"1807","1807","Park Dr @ Fenway Station",,"42.345226","-71.104263",,,,
"1808","1808","Park Dr @ Beacon St",,"42.347115","-71.105194",,,,
"1809","1809","Park Dr @ Mountfort St",,"42.348347","-71.105843",,,,
"1810","1810","Commonwealth Ave @ University Rd",,"42.350613","-71.109848",,,,
"1811","1811","Brookline St @ Granite St",,"42.355267","-71.110123",,,,
"1812","1812","Brookline St @ Putnam Ave",,"42.357452","-71.107841",,,,
"1813","1813","Brookline St @ Erie St",,"42.35923","-71.10598",,,,
"1814","1814","Brookline St @ Tudor St",,"42.360786","-71.10434",,,,
"18144","18144","Webster St opp Elder Rd",,"42.303932","-71.235573",,,,
"1816","1816","Brookline St @ Green St",,"42.363316","-71.101944",,,,
"1817","1817","Pearl St @ Franklin St",,"42.363762","-71.103683",,,,
"18239","18239","Cambridge St @ Arlington Rd",,"42.493896","-71.194412",,,,
"18241","18241","Burlington Mall @ Macys",,"42.48193","-71.212486",,,,
"18244","18244","Cambridge Rd @ Sylvanus Wood Ln",,"42.476898","-71.183502",,,,
"18245","18245","Burlington Mall Rd @ NE Executive Pk",,"42.485706","-71.211891",,,,
"18246","18246","Burlington Mall Rd @ Lahey Clinic Main Entrance",,"42.486046","-71.207542",,,,
"18247","18247","Burlington Mall Rd @ Lahey Clinic 2",,"42.486809","-71.20472",,,,
"18248","18248","Burlington Mall Rd @ S Bedford St",,"42.488064","-71.201675",,,,
"18249","18249","Burlington Mall Rd @ Marriot Hotel",,"42.490631","-71.196907",,,,
"18251","18251","S Bedford St @ Kimball Ave",,"42.487247","-71.199615",,,,
"18253","18253","Van De Graaff Dr @ Hyatt",,"42.482918","-71.196831",,,,
"18272","18272","Mystic St @ Ridge St",,"42.422199","-71.154045",,,,
"18332","18332","Readville St @ Chesterfield St",,"42.241142","-71.135078",,,,
"18335","18335","Main St @ Grant St",,"42.376331","-71.241638",,,,
"18338","18338","Kennedy Dr @ Granada Highlands - Bldg 142",,"42.437424","-71.030441",,,,
"18351","18351","Sohier Rd @ Tozer Rd",,"42.56702","-70.878922",,,,
"1836","1836","Independece Dr opp shopping mall",,"42.295811","-71.157776",,,,
"1838","1838","Opp 650 VFW Pkwy",,"42.295437","-71.158714",,,,
"1839","1839","VFW Pkwy @ Corey St",,"42.29356","-71.162567",,,,
"1840","1840","310 Corey St",,"42.292957","-71.162186",,,,
"1841","1841","Corey St @ Weld St",,"42.291634","-71.160744",,,,
"1842","1842","Weld St @ Ruskin St",,"42.291782","-71.158539",,,,
"1843","1843","Weld St @ Maple St",,"42.291538","-71.157417",,,,
"1844","1844","Weld St @ Willow St",,"42.292183","-71.155464",,,,
"1845","1845","Weld St @ Manthorne Rd",,"42.292881","-71.154373",,,,
"1846","1846","Weld St @ Russett Rd",,"42.29298","-71.152283",,,,
"1847","1847","Weld St @ Church St",,"42.293018","-71.149475",,,,
"1848","1848","Weld St @ W Roxbury Pkwy",,"42.293709","-71.146172",,,,
"1849","1849","Weld St @ Burnside Ave",,"42.293278","-71.144646",,,,
"185","185","Mattapan Station",,"42.267762","-71.092241",,,,"place-matt"
"1850","1850","Weld St @ Ravena Rd",,"42.293087","-71.143204",,,,
"1851","1851","Weld St @ Cerdan Ave",,"42.293549","-71.14003",,,,
"1852","1852","Weld St @ Colby Rd",,"42.293682","-71.138855",,,,
"1853","1853","Weld St @ Centre St",,"42.29446","-71.135666",,,,
"18542","18542","Dedham St opp Rosalie Rd",,"42.302048","-71.19001",,,,
"1856","1856","170 Walter St",,"42.294743","-71.130562",,,,
"1857","1857","144 Walter St opp Mendum St",,"42.292603","-71.130539",,,,
"1858","1858","112 Walter St opp Cotton St",,"42.291866","-71.130753",,,,
"18581","18581","Walter St @ Coniston Rd",,"42.291298","-71.131783",,,,
"1859","1859","Walter St @ Sheffield St",,"42.289761","-71.133453",,,,
"1860","1860","Walter St @ Hewlett St",,"42.288979","-71.134178",,,,
"18618","18618","Washington St @ Sylvia Ln",,"42.238873","-71.180992",,,,
"18636","18636","1666 Massachusetts Ave",,"42.446529","-71.224945",,,,
"1867","1867","Robert St @ Belgrade Ave",,"42.286865","-71.131111",,,,
"1869","1869","31 Walter St opp Sheffield St",,"42.289761","-71.133301",,,,
"18691","18691","Walter St @ Ashfield St",,"42.291054","-71.132034",,,,
"187","187","Massachusetts Ave @ Massachusetts Ave Station",,"42.341512","-71.083423",,,,"place-masta"
"1870","1870","Walter St @ Cotton St",,"42.291859","-71.1306",,,,
"1871","1871","Walter St @ Mendum St",,"42.292656","-71.130409",,,,
"1872","1872","Opp 174 Walter St",,"42.294773","-71.130417",,,,
"1875","1875","Weld St @ Centre St",,"42.294556","-71.135674",,,,
"1876","1876","Weld St @ Alward Rd",,"42.293755","-71.139008",,,,
"1877","1877","Weld St @ Morey St",,"42.29364","-71.140099",,,,
"1878","1878","Weld St @ Gretter St",,"42.293152","-71.143433",,,,
"1879","1879","Weld St @ Lantern Ln",,"42.293297","-71.144279",,,,
"188","188","Massachusetts Ave @ Massachusetts Ave Station",,"42.341512","-71.083423",,,,"place-masta"
"1880","1880","Weld St @ W Roxbury Pkwy",,"42.29372","-71.145897",,,,
"1881","1881","Weld St @ Church St",,"42.293163","-71.149284",,,,
"1882","1882","Weld St @ Russet Rd",,"42.293049","-71.152184",,,,
"1883","1883","Weld St @ Manthorne Rd",,"42.293056","-71.154236",,,,
"1884","1884","Weld St @ Willow St",,"42.29221","-71.155609",,,,
"1885","1885","Weld St @ Maple St",,"42.291584","-71.157158",,,,
"1886","1886","Weld St @ Avalon Rd",,"42.291878","-71.158546",,,,
"1887","1887","Weld St @ Corey St",,"42.291653","-71.16053",,,,
"1888","1888","Corey St @ VFW Pkwy",,"42.293362","-71.162308",,,,
"1889","1889","650 VFW Pkwy",,"42.295177","-71.158585",,,,
"1890","1890","286 Independence Dr",,"42.296959","-71.157631",,,,
"1891","1891","Independence Dr @ Thornton Rd",,"42.298176","-71.156898",,,,
"1892","1892","Independence Dr opp Gerry Rd",,"42.299809","-71.155449",,,,
"18924","18924","404 Wyman St",,"42.406963","-71.256706",,,,
"18925","18925","Opp 175 Wyman St",,"42.402042","-71.258987",,,,
"18926","18926","Wyman St @ Winter St",,"42.397175","-71.260437",,,,
"18928","18928","Totten Pond Rd @ Third Ave",,"42.396889","-71.259293",,,,
"18929","18929","Totten Pond Rd @ Craig Ln",,"42.395466","-71.248276",,,,
"1893","1893","Grove St @ Russet Rd",,"42.301151","-71.153915",,,,
"18930","18930","Totten Pond Rd @ Rando Ln",,"42.391392","-71.24247",,,,
"18931","18931","400 Totten Pond Rd",,"42.397461","-71.253128",,,,
"18932","18932","440 Totten Pond Rd",,"42.397213","-71.255371",,,,
"1895","1895","Grove St @ South St",,"42.302635","-71.152107",,,,
"18974","18974","River St @ Milton St",,"42.242352","-71.147217",,,,
"18975","18975","River St @ Milton St",,"42.242374","-71.147705",,,,
"19","19","Dorchester St @ Old Harbor St",,"42.334507","-71.047577",,,,
"190","190","Congress St @ State St",,"42.358803","-71.056732",,,,
"1900","1900","Centre St @ Pearl St",,"42.358475","-71.185013",,,,
"19073","19073","Franklin St @ Vinton St",,"42.468716","-71.071716",,,,
"191","191","Congress St @ North St",,"42.360401","-71.057129",,,,
"19182","19182","Main St @ North St",,"42.497852","-71.069344",,,,
"192","192","Congress St @ Hanover St",,"42.361496","-71.057533",,,,
"1920","1920","Ipswich St @ Charlesgate E",,"42.347546","-71.09182",,,,
"19201","19201","Cambridge St opp Elko St",,"42.349323","-71.149071",,,,
