stop_id,stop_name,stop_desc,stop_lat,stop_lon,level_id,location_type,parent_station,wheelchair_boarding,stop_code,platform_code,platform_name,zone_id,stop_url,stop_address
door-qnctr-burgin,Quincy Center - Burgin Parkway,Quincy Center - Burgin Parkway,42.251403,-71.005508,level_1_in_street,2,place-qnctr,2,,,,,,
door-qnctr-busway,Quincy Center - Hancock St,Quincy Center - Hancock St,42.251586,-71.005003,level_ground,2,place-qnctr,1,,,,,,
door-mlmnl-pleasant,"Malden Center - Summer St, Pleasant St","Malden Center - Summer St, Pleasant St",42.426880,-71.074355,level_ground,2,place-mlmnl,1,,,,,,
door-mlmnl-commercial,"Malden Center - Commercial St, Malden Government Center","Malden Center - Commercial St, Malden Government Center",42.426814,-71.073983,level_ground,2,place-mlmnl,2,,,,,,
door-mlmnl-ramp,"Malden Center - Commercial St, Malden Government Center (ramp)","Malden Center - Commercial St, Malden Government Center (ramp)",42.426890,-71.073987,level_ground,2,place-mlmnl,1,,,,,,
door-brntn-busway,"Braintree - Garage, Buses, Ivory St","Braintree - Garage, Buses, Ivory St",42.207352,-71.001361,level_ground,2,place-brntn,1,,,,,,
door-brntn-faregates,"Braintree - Garage, Buses, Union St","Braintree - Garage, Buses, Union St",42.207528,-71.001339,level_ground,2,place-brntn,1,,,,,,
door-jfk-columbia,JFK/UMass - Columbia Rd,JFK/UMass - Columbia Rd,42.321358,-71.052583,level_columbia_rd,2,place-jfk,1,,,,,,
door-jfk-busway,"JFK/UMass - Busway, JFK Library, Mount Vernon St (Ramp)","JFK/UMass - Busway, JFK Library, Mount Vernon St (Ramp)",42.320486,-71.051545,level_ground,2,place-jfk,1,,,,,,
door-jfk-oldcolony,"JFK/UMass - Busway, JFK Library, Mount Vernon St (Stairs)","JFK/UMass - Busway, JFK Library, Mount Vernon St (Stairs)",42.320829,-71.051623,level_ground,2,place-jfk,2,,,,,,
door-jfk-sydneys,JFK/UMass - Sydney St (South),JFK/UMass - Sydney St (South),42.319895,-71.052602,level_in_street,2,place-jfk,2,,,,,,
door-jfk-sydneyn,JFK/UMass - Sydney St (North),JFK/UMass - Sydney St (North),42.320597,-71.052713,level_in_street,2,place-jfk,2,,,,,,
door-forhl-upper,Forest Hills - Washington St,Forest Hills - Washington St,42.300466,-71.114149,level_washington_st,2,place-forhl,1,,,,,,
door-forhl-arborway,"Forest Hills - Arboretum, Washington St, South St","Forest Hills - Arboretum, Washington St, South St",42.300934,-71.113820,level_washington_st,2,place-forhl,1,,,,,,
door-forhl-lower,"Forest Hills - Hyde Park Ave, Franklin Park, Zoo, Parking","Forest Hills - Hyde Park Ave, Franklin Park, Zoo, Parking",42.300572,-71.113659,level_hyde_park_ave,2,place-forhl,1,,,,,,
door-forhl-exit,"Forest Hills - Washington St, South St","Forest Hills - Washington St, South St",42.301546,-71.113551,level_washington_st,2,place-forhl,2,,,,,,
door-sstat-main,"South Station - Main Entry, Dewey Square","South Station - Main Entry, Dewey Square",42.352302,-71.055230,level_in_street,2,place-sstat,1,,,,,,
door-sstat-atlantic,South Station - Atlantic Ave,South Station - Atlantic Ave,42.351551,-71.055716,level_in_street,2,place-sstat,1,,,,,,
door-sstat-summer,South Station - Summer St,South Station - Summer St,42.351787,-71.054402,level_in_street,2,place-sstat,1,,,,,,
door-sstat-usps,South Station - USPS Post Office,South Station - USPS Post Office,42.351108,-71.054729,level_ground,2,place-sstat,1,,,,,,
door-sstat-bus,South Station - South Station Bus Terminal,South Station - South Station Bus Terminal,42.350690,-71.056121,level_ground,2,place-sstat,1,,,,,,
door-sstat-dewey,"South Station - Dewey Sq (Summer St, Atlantic Ave)","South Station - Dewey Sq (Summer St, Atlantic Ave)",42.352886,-71.055505,level_in_street,2,place-sstat,1,,,,,,
door-sstat-reserve,"South Station - Atlantic Ave, Summer St","South Station - Atlantic Ave, Summer St",42.352677,-71.055013,level_in_street,2,place-sstat,2,,,,,,
door-sstat-finctr,South Station - Financial Center,South Station - Financial Center,42.352544,-71.055824,level_in_street,2,place-sstat,2,,,,,,
door-sstat-outmain,"South Station - Summer St, Atlantic Ave, Commuter Rail","South Station - Summer St, Atlantic Ave, Commuter Rail",42.352363,-71.055071,level_in_street,2,place-sstat,2,,,,,,
door-rugg-upper,Ruggles - Upper Busway,Ruggles - Upper Busway,42.336821,-71.089501,level_ground,2,place-rugg,1,,,,,,
door-rugg-ruggles,Ruggles - Ruggles St,Ruggles - Ruggles St,42.335891,-71.090358,level_in_street,2,place-rugg,2,,,,,,
door-rugg-buses,"Ruggles - Columbus Ave, Buses","Ruggles - Columbus Ave, Buses",42.336473,-71.089194,level_in_street,2,place-rugg,1,,,,,,
door-rugg-forsyth,"Ruggles - Northeastern, Forsyth St","Ruggles - Northeastern, Forsyth St",42.337010,-71.089421,level_in_street,2,place-rugg,1,,,,,,
door-rugg-columbus,"Ruggles - Columbus Ave, Tremont St","Ruggles - Columbus Ave, Tremont St",42.335873,-71.088906,level_in_street,2,place-rugg,1,,,,,,
door-portr-escal,"Porter - Somerville Ave, Massachusetts Ave","Porter - Somerville Ave, Massachusetts Ave",42.388475,-71.119212,level_in_street,2,place-portr,2,,,,,,
door-portr-crtransfer,"Porter - Massachusetts Ave (East), Buses","Porter - Massachusetts Ave (East), Buses",42.388254,-71.119099,level_in_street,2,place-portr,2,,,,,,
door-portr-elevators,"Porter - Somerville Ave, Massachusetts Ave (Elevator)","Porter - Somerville Ave, Massachusetts Ave (Elevator)",42.388331,-71.118905,level_in_street,2,place-portr,1,,,,,,
door-portr-cracross,"Porter - Massachusetts Ave (West), Buses","Porter - Massachusetts Ave (West), Buses",42.388604,-71.119752,level_in_street,2,place-portr,2,,,,,,
door-north-causeways,"North Station - Causeway St, Haverhill St","North Station - Causeway St, Haverhill St",42.365496,-71.060490,level_in_street,2,place-north,2,,,,,,
door-north-valenti,North Station - Valenti Way,North Station - Valenti Way,42.364652,-71.059541,level_in_street,2,place-north,1,,,,,,
door-north-causewaye,North Station - Causeway St (Elevator),North Station - Causeway St (Elevator),42.365639,-71.060472,level_in_street,2,place-north,1,,,,,,
door-north-crnashua,"North Station - Causeway St (West), Nashua St","North Station - Causeway St (West), Nashua St",42.365738,-71.062684,level_in_street,2,place-north,1,,,,,,
door-north-crcauseway,North Station - Causeway St (East),North Station - Causeway St (East),42.366404,-71.061324,level_in_street,2,place-north,1,,,,,,
door-north-tdgarden,North Station - TD Garden passageway (Elevator),North Station - TD Garden passageway (Elevator),42.365833,-71.060892,level_in_street,2,place-north,1,,,,,,
door-bbsta-dartmn,Back Bay - Dartmouth St (North),Back Bay - Dartmouth St (North),42.347584,-71.075900,level_in_street,2,place-bbsta,1,,,,,,
door-bbsta-dartms,Back Bay - Dartmouth St (South),Back Bay - Dartmouth St (South),42.347348,-71.075791,level_in_street,2,place-bbsta,1,,,,,,
door-bbsta-dartmw,Back Bay - Dartmouth St (Tracks 5 and 7),Back Bay - Dartmouth St (Tracks 5 and 7),42.347572,-71.076228,level_in_street,2,place-bbsta,2,,,,,,
door-bbsta-buswayn,"Back Bay - Clarendon St, Buses (North)","Back Bay - Clarendon St, Buses (North)",42.348180,-71.074840,level_in_street,2,place-bbsta,1,,,,,,
door-bbsta-busways,"Back Bay - Clarendon St, Buses (South)","Back Bay - Clarendon St, Buses (South)",42.347490,-71.075550,level_in_street,2,place-bbsta,1,,,,,,
door-bbsta-clarcolum,"Back Bay - Clarendon St, Columbus Ave","Back Bay - Clarendon St, Columbus Ave",42.347540,-71.073410,level_in_street,2,place-bbsta,2,,,,,,
door-bbsta-clarendon1,Back Bay - Clarendon St (Tracks 1 and 3),Back Bay - Clarendon St (Tracks 1 and 3),42.347552,-71.072937,level_in_street,2,place-bbsta,2,,,,,,
door-bbsta-clarendon2,Back Bay - Clarendon St (Track 2),Back Bay - Clarendon St (Track 2),42.347471,-71.073050,level_in_street,2,place-bbsta,2,,,,,,
door-bbsta-garage,Back Bay - Garage,Back Bay - Garage,42.347860,-71.075150,level_ground,2,place-bbsta,1,,,,,,
door-bbsta-underpass,Back Bay - Underpass to Copley Place,Back Bay - Underpass to Copley Place,42.347273,-71.076565,level_ground,2,place-bbsta,2,,,,,,
door-haecl-congress,"Haymarket - RMV, City Hall, Faneuil Hall Marketplace","Haymarket - RMV, City Hall, Faneuil Hall Marketplace",42.361977,-71.057805,level_in_street,2,place-haecl,1,,,,,,
door-haecl-busway,"Haymarket - RMV, Sudbury St, New Chardon St","Haymarket - RMV, Sudbury St, New Chardon St",42.362900,-71.058138,level_in_street,2,place-haecl,1,,,,,,
door-tumnl-washington,"Tufts Medical Center - Washington St, Tufts Medical Center","Tufts Medical Center - Washington St, Tufts Medical Center",42.349662,-71.063917,level_in_street,2,place-tumnl,1,,,,,,
door-tumnl-tremont,"Tufts Medical Center - Tremont St, YMCA Wang","Tufts Medical Center - Tremont St, YMCA Wang",42.348690,-71.065310,level_in_street,2,place-tumnl,2,,,,,,
door-aqucl-atlantic,Aquarium - Waterfront and New England Aquarium,Aquarium - Waterfront and New England Aquarium,42.359817,-71.051411,level_in_street,2,place-aqucl,2,,,,,,
door-aqucl-atlanticelev,Aquarium - Waterfront and New England Aquarium,Aquarium - Waterfront and New England Aquarium,42.359861,-71.051243,level_in_street,2,place-aqucl,1,,,,,,
door-aqucl-mcknorth,Aquarium - State St (North),Aquarium - State St (North),42.359534,-71.053183,level_in_street,2,place-aqucl,2,,,,,,
door-aqucl-mcksouth,Aquarium - State St (South),Aquarium - State St (South),42.359331,-71.053039,level_in_street,2,place-aqucl,1,,,,,,
door-asmnl-peabody,Ashmont - Peabody Square,Ashmont - Peabody Square,42.285204,-71.064223,level_in_street,2,place-asmnl,1,,,,,,
door-asmnl-rdexits,Ashmont - Buses,Ashmont - Buses,42.284449,-71.063865,level_ground,2,place-asmnl,2,,,,,,
door-asmnl-matpn,Ashmont - Mattapan Line (Lobby),Ashmont - Mattapan Line (Lobby),42.283928,-71.063598,level_ground,2,place-asmnl,1,,,,,,
door-asmnl-radford,Ashmont - Radford Lane,Ashmont - Radford Lane,42.283587,-71.062983,level_in_street,2,place-asmnl,1,,,,,,
door-asmnl-beale,Ashmont - Beale St,Ashmont - Beale St,42.283765,-71.063468,level_in_street,2,place-asmnl,1,,,,,,
door-sull-main,"Sullivan Square - Buses, Parking, Street","Sullivan Square - Buses, Parking, Street",42.384309,-71.076635,level_ground,2,place-sull,1,,,,,,
door-davis-busway,"Davis - College Ave, Tufts University, Buses","Davis - College Ave, Tufts University, Buses",42.396742,-71.121989,level_in_street,2,place-davis,1,,,,,,
door-davis-holland,"Davis - Holland St, Buses","Davis - Holland St, Buses",42.396992,-71.123191,level_in_street,2,place-davis,2,,,,,,
door-hymnl-mass,"Hynes Convention Center - Massachusetts Ave, Buses","Hynes Convention Center - Massachusetts Ave, Buses",42.347837,-71.087825,level_in_street,2,place-hymnl,2,,,,,,
door-hymnl-newbury,Hynes Convention Center - Newbury St,Hynes Convention Center - Newbury St,42.348151,-71.087555,level_in_street,2,place-hymnl,2,,,,,,
door-lech-entrance,Lechmere - Entrance,Lechmere - Entrance,42.370914,-71.077483,level_ground,2,place-lech,1,,,,,,
door-lech-exit,Lechmere - Exit Only,Lechmere - Exit Only,42.371139,-71.077292,level_ground,2,place-lech,1,,,,,,
door-aport-buses,"Airport - Buses, Airport","Airport - Buses, Airport",42.373984,-71.030031,level_ground,2,place-aport,1,,,,,,
door-aport-bremen,Airport - Bremen St,Airport - Bremen St,42.374553,-71.030306,level_ground,2,place-aport,1,,,,,,
door-chmnl-main,"Charles/MGH - Beacon Hill, Esplanade, Hospitals","Charles/MGH - Beacon Hill, Esplanade, Hospitals",42.361117,-71.070570,level_in_street,2,place-chmnl,1,,,,,,
door-armnl-arltw,Arlington - Arlington St (West),Arlington - Arlington St (West),42.351694,-71.070686,level_in_street,2,place-armnl,2,,,,,,
door-armnl-arlte,Arlington - Arlington St (East),Arlington - Arlington St (East),42.351738,-71.070509,level_in_street,2,place-armnl,2,,,,,,
door-armnl-garden,Arlington - Public Garden ,Arlington - Public Garden ,42.351784,-71.070537,level_in_street,2,place-armnl,2,,,,,,
door-armnl-elevator,"Arlington - Elevator, Boylston St","Arlington - Elevator, Boylston St",42.351796,-71.071280,level_in_street,2,place-armnl,1,,,,,,
door-dwnxg-temple,"Downtown Crossing - Temple Place, Lafaytette Place","Downtown Crossing - Temple Place, Lafaytette Place",42.354877,-71.061547,level_in_street,2,place-dwnxg,2,,,,,,
door-dwnxg-winter,"Downtown Crossing - Washington St, Winter St","Downtown Crossing - Washington St, Winter St",42.355362,-71.060720,level_in_street,2,place-dwnxg,1,,,,,,
door-dwnxg-summer,"Downtown Crossing - Washington St, Summer St","Downtown Crossing - Washington St, Summer St",42.355519,-71.060327,level_in_street,2,place-dwnxg,2,,,,,,
door-dwnxg-macys,Downtown Crossing - Macy's,Downtown Crossing - Macy's,42.355253,-71.060521,level_-1_concourse,2,place-dwnxg,1,,,,,,
door-dwnxg-rochebros,Downtown Crossing - Roche Bros,Downtown Crossing - Roche Bros,42.355292,-71.060075,level_-1_concourse,2,place-dwnxg,1,,,,,,
door-dwnxg-franklin,Downtown Crossing - Franklin St,Downtown Crossing - Franklin St,42.356064,-71.059326,level_in_street,2,place-dwnxg,1,,,,,,
door-dwnxg-hawley,Downtown Crossing - Hawley St (Escalator),Downtown Crossing - Hawley St (Escalator),42.355229,-71.059366,level_in_street,2,place-dwnxg,2,,,,,,
door-dwnxg-101arch,"Downtown Crossing - 101 Arch St, Summer St","Downtown Crossing - 101 Arch St, Summer St",42.354843,-71.059480,level_-1_concourse,2,place-dwnxg,1,,,,,,
door-dwnxg-chauncy,Downtown Crossing - Chauncy St,Downtown Crossing - Chauncy St,42.354360,-71.059588,level_in_street,2,place-dwnxg,2,,,,,,
door-dwnxg-summereast,"Downtown Crossing - Summer St, Washington St","Downtown Crossing - Summer St, Washington St",42.355369,-71.060192,level_in_street,2,place-dwnxg,2,,,,,,
door-pktrm-tremontw,"Park Street - Boston Common, Tremont St","Park Street - Boston Common, Tremont St",42.356490,-71.062531,level_in_street,2,place-pktrm,2,,,,,,
door-pktrm-elevatorwb,"Park Street - Elevator, Tremont St","Park Street - Elevator, Tremont St",42.356331,-71.062675,level_in_street,2,place-pktrm,1,,,,,,
door-pktrm-tremonte,"Park Street - Tremont St, Boston Common","Park Street - Tremont St, Boston Common",42.356370,-71.062321,level_in_street,2,place-pktrm,2,,,,,,
door-pktrm-exitashbrain,Park Street - Escalator to Tremont St (South),Park Street - Escalator to Tremont St (South),42.355976,-71.062427,level_in_street,2,place-pktrm,2,,,,,,
door-pktrm-elevatoreb,Park Street - Tremont St to Lobby (Elevator 804),Park Street - Tremont St to Lobby (Elevator 804),42.356172,-71.062239,level_in_street,2,place-pktrm,1,,,,,,
door-pktrm-winter,"Park Street - Tremont St, Winter St","Park Street - Tremont St, Winter St",42.356397,-71.062008,level_in_street,2,place-pktrm,2,,,,,,
door-pktrm-exitalewife,Park Street - Escalator to Tremont St (North),Park Street - Escalator to Tremont St (North),42.356504,-71.061904,level_in_street,2,place-pktrm,2,,,,,,
door-pktrm-west,Park Street - Boston Common,Park Street - Boston Common,42.355456,-71.063402,level_in_street,2,place-pktrm,2,,,,,,
door-state-meeting,"State Street - Washington St, Milk St","State Street - Washington St, Milk St",42.357150,-71.058394,level_in_street,2,place-state,1,,,,,,
door-state-water,"State Street - Devonshire St, Water St","State Street - Devonshire St, Water St",42.357487,-71.057412,level_in_street,2,place-state,2,,,,,,
door-state-congress,State Street - Congress St (North),State Street - Congress St (North),42.359115,-71.056699,level_in_street,2,place-state,1,,,,,,
door-state-exchange,State Street - Congress St (Exchange Place),State Street - Congress St (Exchange Place),42.358413,-71.056499,level_in_street,2,place-state,1,,,,,,
door-state-state,"State Street - Old State House, State St","State Street - Old State House, State St",42.358735,-71.057298,level_in_street,2,place-state,2,,,,,,
door-state-cityhall,State Street - City Hall,State Street - City Hall,42.359435,-71.057615,level_in_street,2,place-state,2,,,,,,
door-boyls-inbound,"Boylston - Boston Common, Street","Boylston - Boston Common, Street",42.352531,-71.064685,level_in_street,2,place-boyls,2,,,,,,
door-boyls-outbound,"Boylston - Boston Common, Street","Boylston - Boston Common, Street",42.353214,-71.064546,level_in_street,2,place-boyls,2,,,,,,
door-gover-main,Government Center - City Hall Plaza,Government Center - City Hall Plaza,42.359699,-71.059360,level_in_street,2,place-gover,1,,,,,,
door-bmmnl-main,Beachmont - Winthrop Ave,Beachmont - Winthrop Ave,42.397551,-70.992358,level_in_street,2,place-bmmnl,1,,,,,,
door-sdmnl-benning,Suffolk Downs - Bennington St,Suffolk Downs - Bennington St,42.390367,-70.996964,level_in_street,2,place-sdmnl,1,,,,,,
door-sdmnl-walley,Suffolk Downs - Walley St,Suffolk Downs - Walley St,42.390640,-70.997388,level_in_street,2,place-sdmnl,1,,,,,,
door-orhte-benning,Orient Heights - Bennington St,Orient Heights - Bennington St,42.387080,-71.004664,level_ground,2,place-orhte,1,,,,,,
door-orhte-saratoga,"Orient Heights - Saratoga St, Barnes Ave","Orient Heights - Saratoga St, Barnes Ave",42.386862,-71.004364,level_ground,2,place-orhte,1,,,,,,
door-wimnl-lovell,Wood Island - Lovell St,Wood Island - Lovell St,42.379446,-71.023083,level_in_street,2,place-wimnl,1,,,,,,
door-wimnl-benning,Wood Island - Bennington St,Wood Island - Bennington St,42.379854,-71.023052,level_ground,2,place-wimnl,1,,,,,,
door-ogmnl-wash,Oak Grove - Washington St,Oak Grove - Washington St,42.436676,-71.071152,level_in_street,2,place-ogmnl,2,,,,,,
door-ogmnl-banks,Oak Grove - Banks Place,Oak Grove - Banks Place,42.436859,-71.070343,level_ground,2,place-ogmnl,1,,,,,,
door-fldcr-busway,"Fields Corner - Busway, Street","Fields Corner - Busway, Street",42.300019,-71.061475,level_ground,2,place-fldcr,1,,,,,,
door-fldcr-charles,Fields Corner - Charles St,Fields Corner - Charles St,42.300463,-71.061868,level_in_street,2,place-fldcr,1,,,,,,
door-nqncy-hancock,North Quincy - Hancock St,North Quincy - Hancock St,42.276631,-71.030922,level_ground,2,place-nqncy,1,,,,,,
door-nqncy-squantum,North Quincy - West Squantum St,North Quincy - West Squantum St,42.275210,-71.029243,level_1_ground,2,place-nqncy,1,,,,,,
door-nqncy-newport,North Quincy - Newport Ave Extension,North Quincy - Newport Ave Extension,42.276483,-71.031184,level_ground,2,place-nqncy,1,,,,,,
door-shmnl-savin,Savin Hill - Savin Hill Ave,Savin Hill - Savin Hill Ave,42.311299,-71.053302,level_1_in_street,2,place-shmnl,1,,,,,,
door-shmnl-sydney,Savin Hill - South Sydney St,Savin Hill - South Sydney St,42.310856,-71.053701,level_ground,2,place-shmnl,1,,,,,,
door-spmnl-nashua,"Science Park - Nashua St, Spaulding Rehab Hospital (Stairs)","Science Park - Nashua St, Spaulding Rehab Hospital (Stairs)",42.366870,-71.067757,level_ground,2,place-spmnl,2,,,,,,
door-spmnl-nashuael,"Science Park - Nashua St, Spaulding Rehab Hospital (Elevator)","Science Park - Nashua St, Spaulding Rehab Hospital (Elevator)",42.366856,-71.067733,level_ground,2,place-spmnl,1,,,,,,
door-spmnl-obrien,"Science Park - Monsignor O'Brien Hwy, Museum of Science (Stairs)","Science Park - Monsignor O'Brien Hwy, Museum of Science (Stairs)",42.366730,-71.067998,level_ground,2,place-spmnl,2,,,,,,
door-spmnl-obrienel,"Science Park - Monsignor O'Brien Hwy, Museum of Science (Elevator)","Science Park - Monsignor O'Brien Hwy, Museum of Science (Elevator)",42.366650,-71.067966,level_ground,2,place-spmnl,1,,,,,,
door-wondl-nshore,Wonderland - 1300 North Shore Rd,Wonderland - 1300 North Shore Rd,42.413650,-70.991904,level_in_street,2,place-wondl,1,,,,,,
door-wondl-ocean,Wonderland - Ocean Ave,Wonderland - Ocean Ave,42.413295,-70.991550,level_ground,2,place-wondl,1,,,,,,
door-wondl-oceann,Wonderland - Ocean Ave North,Wonderland - Ocean Ave North,42.413372,-70.990494,level_in_street,2,place-wondl,2,,,,,,
door-wondl-oceannele,Wonderland - Ocean Ave North Elevator,Wonderland - Ocean Ave North Elevator,42.413537,-70.990558,level_in_street,2,place-wondl,1,,,,,,
door-wondl-revere,Wonderland - Revere Beach,Wonderland - Revere Beach,42.413290,-70.989770,level_in_street,2,place-wondl,1,,,,,,
door-mvbcl-square,"Maverick - Sumner St, Maverick Square","Maverick - Sumner St, Maverick Square",42.369193,-71.039500,level_in_street,2,place-mvbcl,1,,,,,,
door-mvbcl-lewis,Maverick - Lewis Mall,Maverick - Lewis Mall,42.368275,-71.040539,level_ground,2,place-mvbcl,1,,,,,,
door-bomnl-main,Bowdoin - Cambridge St,Bowdoin - Cambridge St,42.361350,-71.061971,level_in_street,2,place-bomnl,2,,,,,,
door-welln-garage,"Wellington - Station Landing, Garage","Wellington - Station Landing, Garage",42.402461,-71.080092,level_ground,2,place-welln,1,,,,,,
door-welln-busway,"Wellington - Buses, Parking Lot","Wellington - Buses, Parking Lot",42.402446,-71.076576,level_ground,2,place-welln,1,,,,,,
door-smmnl-clemen,"Shawmut - Clementine Park, Centre St","Shawmut - Clementine Park, Centre St",42.293067,-71.065784,level_ground,2,place-smmnl,1,,,,,,
door-andrw-exitonly,Andrew - Southampton St,Andrew - Southampton St,42.330004,-71.057863,level_ground,2,place-andrw,2,,,,,,
door-andrw-dotave,"Andrew - Street, Buses","Andrew - Street, Buses",42.330017,-71.057309,level_ground,2,place-andrw,2,,,,,,
door-andrw-busway,Andrew - Buses,Andrew - Buses,42.330164,-71.057605,level_ground,2,place-andrw,2,,,,,,
door-andrw-elevator,Andrew - Elevator,Andrew - Elevator,42.330017,-71.057684,level_ground,2,place-andrw,1,,,,,,
door-chncl-ogessex,"Chinatown - Washington St, Essex St","Chinatown - Washington St, Essex St",42.352252,-71.062519,level_in_street,2,place-chncl,2,,,,,,
door-chncl-foresthills,"Chinatown - Washington St, Essex St","Chinatown - Washington St, Essex St",42.352457,-71.062678,level_in_street,2,place-chncl,2,,,,,,
door-chncl-ogelevator,Chinatown - Elevator (Oak Grove),Chinatown - Elevator (Oak Grove),42.352628,-71.062443,level_in_street,2,place-chncl,1,,,,,,
door-chncl-fhelevator,"Chinatown - Washington St, Essex St","Chinatown - Washington St, Essex St",42.352405,-71.063087,level_in_street,2,place-chncl,1,,,,,,
door-knncl-sbmain,"Kendall/MIT - Main St, Buses, Cambridge Center","Kendall/MIT - Main St, Buses, Cambridge Center",42.362259,-71.086206,level_in_street,2,place-knncl,1,,,,,,
door-knncl-nbmain,"Kendall/MIT - Main St, Buses, Cambridge Center","Kendall/MIT - Main St, Buses, Cambridge Center",42.362588,-71.086167,level_in_street,2,place-knncl,1,,,,,,
door-knncl-sbsecond,"Kendall/MIT - Main St, Third St","Kendall/MIT - Main St, Third St",42.362232,-71.084862,level_in_street,2,place-knncl,2,,,,,,
door-knncl-nbsecond,"Kendall/MIT - Main St, Third St","Kendall/MIT - Main St, Third St",42.362439,-71.084837,level_in_street,2,place-knncl,2,,,,,,
door-cntsq-western,Central - Western Ave,Central - Western Ave,42.365635,-71.104304,level_in_street,2,place-cntsq,2,,,,,,
door-cntsq-ibmass,Central - Mass Ave,Central - Mass Ave,42.365190,-71.103557,level_in_street,2,place-cntsq,1,,,,,,
door-cntsq-pearl,Central - Pearl St,Central - Pearl St,42.364831,-71.102989,level_in_street,2,place-cntsq,2,,,,,,
door-cntsq-essex,Central - Essex St,Central - Essex St,42.364991,-71.102811,level_in_street,2,place-cntsq,2,,,,,,
door-cntsq-obmass,Central - Mass Ave,Central - Mass Ave,42.365541,-71.103749,level_in_street,2,place-cntsq,1,,,,,,
door-cntsq-prospect,Central - Prospect St,Central - Prospect St,42.365778,-71.104131,level_in_street,2,place-cntsq,2,,,,,,
door-brdwy-traveler,Broadway - Traveler St,Broadway - Traveler St,42.342962,-71.057389,level_in_street,2,place-brdwy,2,,,,,,
door-brdwy-main,Broadway - Broadway,Broadway - Broadway,42.342560,-71.056944,level_in_street,2,place-brdwy,1,,,,,,
door-ccmnl-main,"Community College - Community College, Rutherford Ave","Community College - Community College, Rutherford Ave",42.373719,-71.069600,level_in_street,2,place-ccmnl,1,,,,,,
door-jaksn-main,"Jackson Square - Centre St, Busway, Park","Jackson Square - Centre St, Busway, Park",42.323014,-71.099879,level_ground,2,place-jaksn,1,,,,,,
door-astao-foley,Assembly - Foley St,Assembly - Foley St,42.393312,-71.077661,level_in_street,2,place-astao,1,,,,,,
door-astao-revol,Assembly - Revolution Dr,Assembly - Revolution Dr,42.392164,-71.077559,level_in_street,2,place-astao,1,,,,,,
door-qamnl-burgin,Quincy Adams - Burgin Parkway,Quincy Adams - Burgin Parkway,42.233317,-71.007363,level_ground,2,place-qamnl,1,,,,,,
door-qamnl-pickup,Quincy Adams - Pick-up/Drop-off,Quincy Adams - Pick-up/Drop-off,42.232705,-71.007425,level_ground,2,place-qamnl,1,,,,,,
door-qamnl-indep,Quincy Adams - Independence Avenue,Quincy Adams - Independence Avenue,42.233436,-71.006137,level_independence_ave,2,place-qamnl,1,,,,,,
door-alfcl-alewife,Alewife - Alewife Path,Alewife - Alewife Path,42.395862,-71.140929,level_ground,2,place-alfcl,1,,,,,,
door-alfcl-russell,Alewife - Russell Field,Alewife - Russell Field,42.396060,-71.139575,level_ground,2,place-alfcl,1,,,,,,
door-alfcl-busway,"Alewife - Garage, Buses","Alewife - Garage, Buses",42.395672,-71.141631,level_ground,2,place-alfcl,1,,,,,,
door-alfcl-steel,"Alewife - Steel Place, Alewife Brook Reserve","Alewife - Steel Place, Alewife Brook Reserve",42.395578,-71.142469,level_in_street,2,place-alfcl,1,,,,,,
door-alfcl-cambridgepark,"Alewife - Cambridgepark Dr, Alewife Brook Pkwy","Alewife - Cambridgepark Dr, Alewife Brook Pkwy",42.394893,-71.141516,level_in_street,2,place-alfcl,1,,,,,,
door-rcmnl-tremont,Roxbury Crossing - Tremont St,Roxbury Crossing - Tremont St,42.331415,-71.095480,level_in_street,2,place-rcmnl,1,,,,,,
door-masta-corridor,Massachusetts Avenue - Massachusetts Ave (Northside),Massachusetts Avenue - Massachusetts Ave (Northside),42.341773,-71.083167,level_in_street,2,place-masta,1,,,,,,
door-masta-main,Massachusetts Avenue - Massachusetts Ave (Southside),Massachusetts Avenue - Massachusetts Ave (Southside),42.341551,-71.083436,level_in_street,2,place-masta,1,,,,,,
door-masta-camden,Massachusetts Avenue - Camden St,Massachusetts Avenue - Camden St,42.340379,-71.084763,level_ground,2,place-masta,2,,,,,,
door-harsq-square,Harvard - Harvard Square,Harvard - Harvard Square,42.373371,-71.119004,level_in_street,2,place-harsq,2,,,,,,
door-harsq-brattle,Harvard - Brattle Square,Harvard - Brattle Square,42.373310,-71.120545,level_in_street,2,place-harsq,1,,,,,,
door-harsq-yard,"Harvard - Church St, Harvard Yard","Harvard - Church St, Harvard Yard",42.374384,-71.118669,level_in_street,2,place-harsq,2,,,,,,
door-harsq-church,"Harvard - Church St, Harvard Square","Harvard - Church St, Harvard Square",42.374317,-71.118956,level_in_street,2,place-harsq,2,,,,,,
door-symcl-ebchurch,"Symphony - Massachusetts Ave, First Church of Christ","Symphony - Massachusetts Ave, First Church of Christ",42.342764,-71.084511,level_in_street,2,place-symcl,2,,,,,,
door-symcl-ebsymphony,"Symphony - Massachusetts Ave, Symphony Hall","Symphony - Massachusetts Ave, Symphony Hall",42.342457,-71.084862,level_in_street,2,place-symcl,2,,,,,,
door-symcl-westland,"Symphony - Westland Ave, Symphony Hall","Symphony - Westland Ave, Symphony Hall",42.342941,-71.085360,level_in_street,2,place-symcl,2,,,,,,
door-symcl-huntw,"Symphony - Massachusetts Ave, Huntington Ave (West)","Symphony - Massachusetts Ave, Huntington Ave (West)",42.342822,-71.085185,level_in_street,2,place-symcl,2,,,,,,
door-symcl-falmouth,"Symphony - First Church, Falmouth St","Symphony - First Church, Falmouth St",42.343075,-71.085195,level_in_street,2,place-symcl,2,,,,,,
door-symcl-hunte,"Symphony - Massachusetts Ave, Huntington Ave (East)","Symphony - Massachusetts Ave, Huntington Ave (East)",42.342957,-71.085021,level_in_street,2,place-symcl,2,,,,,,
door-coecl-church,"Copley - Dartmouth St, Old South Church","Copley - Dartmouth St, Old South Church",42.350194,-71.077551,level_in_street,2,place-coecl,1,,,,,,
door-coecl-east,Copley - Dartmouth St (East),Copley - Dartmouth St (East),42.350312,-71.077382,level_in_street,2,place-coecl,2,,,,,,
door-coecl-bpl,Copley - Boylston St,Copley - Boylston St,42.349799,-71.078026,level_in_street,2,place-coecl,2,,,,,,
door-kencl-beacon,"Kenmore - Boston University, Beacon St","Kenmore - Boston University, Beacon St",42.349273,-71.095549,level_in_street,2,place-kencl,2,,,,,,
door-kencl-commonwealth,"Kenmore - Fenway Park, Commonwealth Ave","Kenmore - Fenway Park, Commonwealth Ave",42.348616,-71.095520,level_in_street,2,place-kencl,1,,,,,,
door-kencl-busway,"Kenmore - Busway, Commonwealth Ave","Kenmore - Busway, Commonwealth Ave",42.348882,-71.095420,level_ground,2,place-kencl,1,,,,,,
door-crtst-north,"Courthouse - Fan Pier Blvd, Seaport Blvd","Courthouse - Fan Pier Blvd, Seaport Blvd",42.352611,-71.047046,level_in_street,2,place-crtst,1,,,,,,
door-crtst-south,"Courthouse - Thomson Pl, Seaport Blvd","Courthouse - Thomson Pl, Seaport Blvd",42.352247,-71.046901,level_in_street,2,place-crtst,1,,,,,,
door-wtcst-wtc,World Trade Center - World Trade Center Ave,World Trade Center - World Trade Center Ave,42.348484,-71.042509,level_wtc_ave,2,place-wtcst,1,,,,,,
door-wtcst-congress,World Trade Center - Congress St,World Trade Center - Congress St,42.348702,-71.042368,level_congress_st,2,place-wtcst,1,,,,,,
door-rbmnl-ocean,Revere Beach - 300 Ocean Ave,Revere Beach - 300 Ocean Ave,42.407900,-70.992110,level_0_building,2,place-rbmnl,2,,,,,,
door-rbmnl-main,"Revere Beach - Ocean Ave, Shirley Ave","Revere Beach - Ocean Ave, Shirley Ave",42.407820,-70.992633,level_in_street,2,place-rbmnl,1,,,,,,
door-rbmnl-shirley,Revere Beach - Shirley Ave,Revere Beach - Shirley Ave,42.407331,-70.992363,level_in_street,2,place-rbmnl,2,,,,,,
door-rbmnl-beach,Revere Beach - Beach St,Revere Beach - Beach St,42.408430,-70.992553,level_in_street,2,place-rbmnl,2,,,,,,
door-matt-square,Mattapan - Mattapan Square,Mattapan - Mattapan Square,42.267516,-71.093089,level_ground,2,place-matt,1,,,,,,
door-matt-neponset,"Mattapan - Neponset Trail, Parking","Mattapan - Neponset Trail, Parking",42.267744,-71.091871,level_ground,2,place-matt,1,,,,,,
door-matt-northbus,Mattapan - Upper Busway,Mattapan - Upper Busway,42.267684,-71.092224,level_ground,2,place-matt,1,,,,,,
door-matt-southbus,Mattapan - Lower Busway,Mattapan - Lower Busway,42.267431,-71.092376,level_ground,2,place-matt,1,,,,,,
door-miltt-trail,Milton - Neponset Trail,Milton - Neponset Trail,42.270436,-71.067005,level_ground,2,place-miltt,1,,,,,,
door-miltt-adams,Milton - Adams St,Milton - Adams St,42.270248,-71.067694,level_1_in_street,2,place-miltt,2,,,,,,
door-miltt-wharf,"Milton - Parking, Wharf St","Milton - Parking, Wharf St",42.270275,-71.067246,level_ground,2,place-miltt,1,,,,,,
door-capst-mattapan,Capen Street - Capen St (West),Capen Street - Capen St (West),42.267595,-71.087241,level_in_street,2,place-capst,1,,,,,,
door-capst-ashmont,Capen Street - Capen St (East),Capen Street - Capen St (East),42.267529,-71.087266,level_in_street,2,place-capst,1,,,,,,
door-butlr-branchfield,"Butler - Branchfield St, Butler St","Butler - Branchfield St, Butler St",42.272469,-71.062579,level_ground,2,place-butlr,1,,,,,,
door-butlr-bearse,"Butler - Bearse Ave, Butler St","Butler - Bearse Ave, Butler St",42.272115,-71.062677,level_in_street,2,place-butlr,1,,,,,,
door-cedgr-hillsdale,Cedar Grove - Hillsdale St,Cedar Grove - Hillsdale St,42.279969,-71.061122,level_in_street,2,place-cedgr,1,,,,,,
door-cedgr-fellsway,Cedar Grove - Fellsway St,Cedar Grove - Fellsway St,42.279710,-71.060360,level_in_street,2,place-cedgr,1,,,,,,
door-valrd-eliot,Valley Road - Eliot St,Valley Road - Eliot St,42.267932,-71.081125,level_1_in_street,2,place-valrd,2,,,,,,
door-cenav-mattapan,"Central Avenue - Central Ave (North), Neponset Trail","Central Avenue - Central Ave (North), Neponset Trail",42.270069,-71.073327,level_in_street,2,place-cenav,1,,,,,,
door-cenav-ashmont,Central Avenue - Central Ave (South),Central Avenue - Central Ave (South),42.269991,-71.073299,level_in_street,2,place-cenav,1,,,,,,
door-newto-braeland,"Newton Centre - Braeland Ave, Langley Rd","Newton Centre - Braeland Ave, Langley Rd",42.329349,-71.192296,level_1_in_street,2,place-newto,2,,,,,,
door-newto-unions,Newton Centre - Union St (Stairs),Newton Centre - Union St (Stairs),42.329504,-71.192690,level_1_in_street,2,place-newto,2,,,,,,
door-newto-unionr,Newton Centre - Union St (Ramp),Newton Centre - Union St (Ramp),42.329357,-71.193269,level_1_in_street,2,place-newto,1,,,,,,
door-newto-langley,Newton Centre - Langley Rd,Newton Centre - Langley Rd,42.329740,-71.191841,level_1_in_street,2,place-newto,1,,,,,,
door-newto-herrick,"Newton Centre - Union St, Herrick Rd","Newton Centre - Union St, Herrick Rd",42.329240,-71.193377,level_1_in_street,2,place-newto,2,,,,,,
door-newtn-lake,Newton Highlands - Lake Ave,Newton Highlands - Lake Ave,42.322668,-71.205643,level_1_in_street,2,place-newtn,1,,,,,,
door-newtn-station,Newton Highlands - Station Ave,Newton Highlands - Station Ave,42.322594,-71.205558,level_1_in_street,2,place-newtn,1,,,,,,
door-newtn-walnut,Newton Highlands - Walnut St,Newton Highlands - Walnut St,42.321968,-71.206232,level_1_in_street,2,place-newtn,1,,,,,,
door-newtn-hyde,Newton Highlands - Hyde St,Newton Highlands - Hyde St,42.323468,-71.204330,level_1_in_street,2,place-newtn,2,,,,,,
door-eliot-lincoln,"Eliot - Lincoln St, Parking","Eliot - Lincoln St, Parking",42.319272,-71.216878,level_in_street,2,place-eliot,2,,,,,,
door-eliot-meredith,Eliot - Meredith Ave,Eliot - Meredith Ave,42.319024,-71.216831,level_in_street,2,place-eliot,1,,,,,,
door-eliot-boyle,"Eliot - Route 9, Boylston St (Eastbound)","Eliot - Route 9, Boylston St (Eastbound)",42.318301,-71.215414,level_boylston_st,2,place-eliot,1,,,,,,
door-eliot-boylws,"Eliot - Route 9, Boylston St (Westbound stairs)","Eliot - Route 9, Boylston St (Westbound stairs)",42.318488,-71.215831,level_boylston_st,2,place-eliot,2,,,,,,
door-eliot-boylwr,"Eliot - Route 9, Boylston St (Westbound ramp)","Eliot - Route 9, Boylston St (Westbound ramp)",42.318555,-71.215430,level_boylston_st,2,place-eliot,1,,,,,,
door-waban-beacon,Waban - Beacon St (Stairs),Waban - Beacon St (Stairs),42.326298,-71.230923,level_beacon_st,2,place-waban,2,,,,,,
door-waban-wyman,Waban - Wyman St West,Waban - Wyman St West,42.326355,-71.230560,level_in_street,2,place-waban,1,,,,,,
door-waban-parks,Waban - Parking (Stairs),Waban - Parking (Stairs),42.326034,-71.230735,level_ground,2,place-waban,2,,,,,,
door-waban-parkr,Waban - Parking (Ramp),Waban - Parking (Ramp),42.325748,-71.230288,level_ground,2,place-waban,1,,,,,,
door-woodl-main,Woodland - Main,Woodland - Main,42.333136,-71.243720,level_in_street,2,place-woodl,1,,,,,,
door-woodl-east,Woodland - East,Woodland - East,42.332729,-71.242908,level_in_street,2,place-woodl,1,,,,,,
door-river-main,Riverside - Main,Riverside - Main,42.337298,-71.252671,level_ground,2,place-river,1,,,,,,
door-chhil-bc,"Chestnut Hill - Shopping Center, Boston College","Chestnut Hill - Shopping Center, Boston College",42.326808,-71.165473,level_1_in_street,2,place-chhil,2,,,,,,
door-chhil-parkw,Chestnut Hill - Parking Lot Access (West),Chestnut Hill - Parking Lot Access (West),42.326831,-71.164840,level_ground,2,place-chhil,2,,,,,,
door-chhil-parke,Chestnut Hill - Parking Lot Access (East),Chestnut Hill - Parking Lot Access (East),42.326909,-71.164347,level_ground,2,place-chhil,1,,,,,,
door-chhil-museum,"Chestnut Hill - Brimmer and May, Longyear Museum","Chestnut Hill - Brimmer and May, Longyear Museum",42.326736,-71.164175,level_ground,2,place-chhil,1,,,,,,
door-rsmnl-eramp,"Reservoir - Chestnut Hill Ave, Cleveland Circle (Ramp)","Reservoir - Chestnut Hill Ave, Cleveland Circle (Ramp)",42.334958,-71.148606,level_1_ground,2,place-rsmnl,1,,,,,,
door-rsmnl-estairs,"Reservoir - Chestnut Hill Ave, Buses (Park St & North)","Reservoir - Chestnut Hill Ave, Buses (Park St & North)",42.335034,-71.148695,level_1_ground,2,place-rsmnl,2,,,,,,
door-rsmnl-wstairs,"Reservoir - Chestnut Hill Ave, Buses (Riverside)","Reservoir - Chestnut Hill Ave, Buses (Riverside)",42.335138,-71.148777,level_1_ground,2,place-rsmnl,2,,,,,,
door-rsmnl-wramp,Reservoir - Cleveland Circle (Ramp),Reservoir - Cleveland Circle (Ramp),42.335263,-71.149813,level_1_in_street,2,place-rsmnl,1,,,,,,
door-bcnfd-lot,Beaconsfield - Parking Lot,Beaconsfield - Parking Lot,42.335845,-71.140420,level_ground,2,place-bcnfd,2,,,,,,
door-bcnfd-bcnfield,Beaconsfield - Beaconsfield Rd,Beaconsfield - Beaconsfield Rd,42.335788,-71.139930,level_ground,2,place-bcnfd,1,,,,,,
door-bcnfd-dean,"Beaconsfield - Dean Rd, Beacon St","Beaconsfield - Dean Rd, Beacon St",42.336053,-71.141404,level_1_in_street,2,place-bcnfd,2,,,,,,
door-bcnfd-clark,Beaconsfield - Clark Rd,Beaconsfield - Clark Rd,42.335555,-71.139970,level_ground,2,place-bcnfd,1,,,,,,
door-brkhl-bhs,"Brookline Hills - Tappan St, Brookline High School","Brookline Hills - Tappan St, Brookline High School",42.331516,-71.126922,level_in_street,2,place-brkhl,1,,,,,,
door-brkhl-cypress,"Brookline Hills - Tappan St, Cypress St","Brookline Hills - Tappan St, Cypress St",42.331421,-71.126579,level_in_street,2,place-brkhl,1,,,,,,
door-bvmnl-boylston,"Brookline Village - Buses, Route 9","Brookline Village - Buses, Route 9",42.332660,-71.116542,level_in_street,2,place-bvmnl,1,,,,,,
door-bvmnl-kent,"Brookline Village - Station St, Kent St","Brookline Village - Station St, Kent St",42.332818,-71.116610,level_in_street,2,place-bvmnl,1,,,,,,
door-bvmnl-washington,"Brookline Village - Station St, Washington St","Brookline Village - Station St, Washington St",42.332552,-71.117214,level_in_street,2,place-bvmnl,1,,,,,,
door-bvmnl-place,Brookline Village - 10 Brookline Place West,Brookline Village - 10 Brookline Place West,42.332177,-71.117440,level_1_ground,2,place-bvmnl,2,,,,,,
door-longw-longwood,"Longwood - Chapel St, Longwood Ave","Longwood - Chapel St, Longwood Ave",42.341542,-71.110298,level_in_street,2,place-longw,1,,,,,,
door-longw-colchester,"Longwood - Chapel St, Colchester St","Longwood - Chapel St, Colchester St",42.341892,-71.109897,level_in_street,2,place-longw,2,,,,,,
door-longw-necklace,Longwood - Emerald Necklace,Longwood - Emerald Necklace,42.341443,-71.110099,level_ground,2,place-longw,1,,,,,,
door-fenwy-parkdr,Fenway - Park Dr (Stairs),Fenway - Park Dr (Stairs),42.345298,-71.104230,level_ground,2,place-fenwy,2,,,,,,
door-fenwy-longwood,"Fenway - Fenway Park, Park Dr, Longwood","Fenway - Fenway Park, Park Dr, Longwood",42.345393,-71.104116,level_1_in_street,2,place-fenwy,1,,,,,,
door-prmnl-prudential,Prudential - Prudential Center,Prudential - Prudential Center,42.345632,-71.081223,level_0_building,2,place-prmnl,1,,,,,,
door-prmnl-huntington,Prudential - Huntington Ave,Prudential - Huntington Ave,42.345791,-71.081609,level_in_street,2,place-prmnl,2,,,,,,
door-grnst-main,"Green Street - Woolsey Sq, Green St, Amory St","Green Street - Woolsey Sq, Green St, Amory St",42.310556,-71.107519,level_in_street,2,place-grnst,1,,,,,,
door-sbmnl-main,Stony Brook - Amory St,Stony Brook - Amory St,42.317100,-71.104216,level_in_street,2,place-sbmnl,1,,,,,,
Boat-Hull,Hull,,42.303251,-70.920215,,0,,1,,,,,https://www.mbta.com/stops/Boat-Hull,"180 Main St, Hull, MA 02045"
Boat-Logan,Logan Airport Ferry Terminal,,42.359789,-71.027340,,0,,1,,,,,https://www.mbta.com/stops/Boat-Logan,"Harborside Dr, East Boston, MA 02128"
Boat-Long,Long Wharf (North),,42.360795,-71.049976,,0,,1,,,,,https://www.mbta.com/stops/Boat-Long,"Long Wharf near Christopher Columbus Park, Boston, MA 02110"
Boat-Long-South,Long Wharf (South),,42.359448,-71.050498,,0,,1,,,,,https://www.mbta.com/stops/Boat-Long-South,"Long Wharf near Old Atlantic Ave, Boston, MA 02110"
Boat-Charlestown,Charlestown,,42.373334,-71.054160,,0,,1,,,,,https://www.mbta.com/stops/Boat-Charlestown,"Pier 4, Boston, MA 02129"
Boat-Rowes,Rowes Wharf,,42.355721,-71.049897,,0,,1,,,,,https://www.mbta.com/stops/Boat-Rowes,"60 Rowes Wharf, Boston, MA 02110"
Boat-Hingham,Hingham,,42.252643,-70.919875,,0,,1,,,,,https://www.mbta.com/stops/Boat-Hingham,"349 Lincoln St, Hingham, MA 02043"
1,Washington St opp Ruggles St,,42.330957,-71.082754,,0,,1,1,,,,https://www.mbta.com/stops/1,
10,Theo Glynn Way @ Newmarket Sq,,42.330555,-71.068787,,0,,1,10,,,,https://www.mbta.com/stops/10,
10000,Tremont St opp Temple Pl,,42.355692,-71.062911,,0,,1,10000,,,,https://www.mbta.com/stops/10000,
10003,Albany St opp Randall St,,42.331591,-71.076237,,0,,0,10003,,,,https://www.mbta.com/stops/10003,
10005,Albany St opp E Concord St,,42.335017,-71.071280,,0,,1,10005,,,,https://www.mbta.com/stops/10005,
10006,Albany St opp E Newton St,,42.335814,-71.070135,,0,,1,10006,,,,https://www.mbta.com/stops/10006,
10007,540 Albany St opp Wareham St,,42.338372,-71.066556,,0,,1,10007,,,,https://www.mbta.com/stops/10007,
10008,Albany St opp Randolph St,,42.339915,-71.064356,,0,,0,10008,,,,https://www.mbta.com/stops/10008,
10009,High St @ Duck Lane,,42.214986,-70.915924,,0,,0,10009,,,,https://www.mbta.com/stops/10009,
1001,Newton St @ Arlington Rd,,42.307661,-71.169522,,0,,0,1001,,,,https://www.mbta.com/stops/1001,
10010,Southampton St @ Newmarket St,,42.330944,-71.064621,,0,,0,10010,,,,https://www.mbta.com/stops/10010,
10011,Albany St @ Randolph St,,42.340162,-71.064227,,0,,1,10011,,,,https://www.mbta.com/stops/10011,
10012,Albany St @ Wareham St,,42.338361,-71.066667,,0,,1,10012,,,,https://www.mbta.com/stops/10012,
10013,Albany St @ E Dedham St,,42.337556,-71.067875,,0,,1,10013,,,,https://www.mbta.com/stops/10013,
10014,Albany St opp Boston Medical,,42.334342,-71.072226,,0,,1,10014,,,,https://www.mbta.com/stops/10014,
10015,Harrison Ave @ E Newton St,,42.337402,-71.072162,,0,,1,10015,,,,https://www.mbta.com/stops/10015,
10016,TradeCenter 128,,42.499402,-71.162384,,0,,0,10016,,,,https://www.mbta.com/stops/10016,
10031,E 1st St @ P St,,42.338307,-71.027132,,0,,0,10031,,,,https://www.mbta.com/stops/10031,
10032,E 1st St opp O St,,42.338274,-71.029203,,0,,0,10032,,,,https://www.mbta.com/stops/10032,
10033,E 1st St @ O St,,42.338176,-71.029444,,0,,0,10033,,,,https://www.mbta.com/stops/10033,
101,Massachusetts Ave @ Sidney St,,42.362988,-71.099486,,0,,0,101,,,,https://www.mbta.com/stops/101,
10100,Albany St @ Randall St,,42.331675,-71.076347,,0,,0,10100,,,,https://www.mbta.com/stops/10100,
10101,Melnea Cass Blvd @ Harrison Ave,,42.332066,-71.079147,,0,,0,10101,,,,https://www.mbta.com/stops/10101,
10134,Massachusetts Ave @ NStar,,42.324778,-71.065219,,0,,1,10134,,,,https://www.mbta.com/stops/10134,
102,Massachusetts Ave @ Prospect St,,42.365291,-71.103404,,0,,1,102,,,,https://www.mbta.com/stops/102,
1026,Chestnut Hill Ave @ Veronica Smith Ctr,,42.347693,-71.153921,,0,,0,1026,,,,https://www.mbta.com/stops/1026,
1027,Chestnut Hill Ave @ Englewood Ave,,42.337121,-71.152079,,0,,1,1027,,,,https://www.mbta.com/stops/1027,
1028,Chestnut Hill Ave @ Commonwealth Ave,,42.337951,-71.153084,,0,,1,1028,,,,https://www.mbta.com/stops/1028,
1029,Chestnut Hill Ave @ Commonwealth Ave,,42.338312,-71.153451,,0,,1,1029,,,,https://www.mbta.com/stops/1029,
1030,Chestnut Hill Ave @ Strathmore Rd,,42.340260,-71.155274,,0,,1,1030,,,,https://www.mbta.com/stops/1030,
1031,Chestnut Hill Ave @ Chiswick Rd,,42.341096,-71.154737,,0,,1,1031,,,,https://www.mbta.com/stops/1031,
1032,Chestnut Hill Ave opp Wiltshire Rd,,42.343065,-71.153469,,0,,1,1032,,,,https://www.mbta.com/stops/1032,
1033,Chestnut Hill Ave @ Wallingford Rd,,42.344607,-71.153220,,0,,1,1033,,,,https://www.mbta.com/stops/1033,
1034,Chestnut Hill Ave @ Union St,,42.346123,-71.152997,,0,,0,1034,,,,https://www.mbta.com/stops/1034,
1035,Market St @ Washington St,,42.349261,-71.153309,,0,,1,1035,,,,https://www.mbta.com/stops/1035,
1036,Market St @ Sparhawk St,,42.351738,-71.151763,,0,,1,1036,,,,https://www.mbta.com/stops/1036,
1038,Market St @ Gardena St,,42.354227,-71.150236,,0,,1,1038,,,,https://www.mbta.com/stops/1038,
1039,Market St @ N Beacon St,,42.355569,-71.149366,,0,,1,1039,,,,https://www.mbta.com/stops/1039,
104,Massachusetts Ave @ Bigelow St,,42.366837,-71.106017,,0,,0,104,,,,https://www.mbta.com/stops/104,
1040,Market St @ Guest St,,42.357313,-71.148285,,0,,1,1040,,,,https://www.mbta.com/stops/1040,
1041,Market St @ Centola St,,42.359279,-71.147082,,0,,1,1041,,,,https://www.mbta.com/stops/1041,
10413,Columbus Ave @ Weld Ave,,42.315067,-71.097752,,0,,0,10413,,,,https://www.mbta.com/stops/10413,
10417,American Legion Hwy @ Blue Hill Ave,,42.298267,-71.087238,,0,,0,10417,,,,https://www.mbta.com/stops/10417,
10418,American Legion Hwy opp Franklin Hill Ave,,42.295828,-71.092507,,0,,0,10418,,,,https://www.mbta.com/stops/10418,
10419,American Legion Hwy @ Canterbury St,,42.285933,-71.109847,,0,,0,10419,,,,https://www.mbta.com/stops/10419,
1042,Market St @ Lothrop St,,42.360459,-71.146341,,0,,2,1042,,,,https://www.mbta.com/stops/1042,
10420,opp 150 American Legion Hwy,,42.294747,-71.093301,,0,,0,10420,,,,https://www.mbta.com/stops/10420,
10421,American Legion Hwy @ Walk Hill St,,42.287688,-71.106954,,0,,0,10421,,,,https://www.mbta.com/stops/10421,
10422,American Legion Hwy opp Shopping Center,,42.284762,-71.111695,,0,,0,10422,,,,https://www.mbta.com/stops/10422,
10423,American Legion Hwy @ Stella Rd,,42.280752,-71.116254,,0,,0,10423,,,,https://www.mbta.com/stops/10423,
10424,American Legion Hwy @ Cummins Hwy,,42.278467,-71.116716,,0,,0,10424,,,,https://www.mbta.com/stops/10424,
10425,American Legion Hwy opp Shopping Mall,,42.274382,-71.116781,,0,,0,10425,,,,https://www.mbta.com/stops/10425,
10426,American Legion Hwy @ Army Reserve,,42.284246,-71.112437,,0,,0,10426,,,,https://www.mbta.com/stops/10426,
10427,American Legion Hwy opp Kingbird Rd,,42.293255,-71.094593,,0,,0,10427,,,,https://www.mbta.com/stops/10427,
1043,Western Ave @ Mackin St,,42.361668,-71.144413,,0,,1,1043,,,,https://www.mbta.com/stops/1043,
1044,Western Ave @ Richardson St,,42.361897,-71.143279,,0,,1,1044,,,,https://www.mbta.com/stops/1044,
1045,450 Western Ave,,42.362164,-71.141783,,0,,1,1045,,,,https://www.mbta.com/stops/1045,
1046,Western Ave @ Litchfield St,,42.362531,-71.139786,,0,,0,1046,,,,https://www.mbta.com/stops/1046,
1049,Western Ave @ Everett St,,42.363093,-71.135443,,0,,0,1049,,,,https://www.mbta.com/stops/1049,
1051,Western Ave @ Travis St,,42.363248,-71.128518,,0,,1,1051,,,,https://www.mbta.com/stops/1051,
1052,130 Western Ave,,42.363526,-71.125043,,0,,1,1052,,,,https://www.mbta.com/stops/1052,
10522,Circuit Dr @ Glen Ln,,42.305104,-71.094684,,0,,1,10522,,,,https://www.mbta.com/stops/10522,
1053,Western Ave @ Genzyme,,42.363915,-71.119805,,0,,1,1053,,,,https://www.mbta.com/stops/1053,
10540,Morton St @ Evans St,,42.280886,-71.084654,,0,,1,10540,,,,https://www.mbta.com/stops/10540,
1055,River St opp Blackstone St,,42.361913,-71.114378,,0,,0,1055,,,,https://www.mbta.com/stops/1055,
1056,River St @ Fairmont St,,42.362565,-71.112387,,0,,0,1056,,,,https://www.mbta.com/stops/1056,
10569,2165 Dorchester Ave,,42.276285,-71.067029,,0,,1,10569,,,,https://www.mbta.com/stops/10569,
1057,River St @ Kelly Rd,,42.363156,-71.110605,,0,,0,1057,,,,https://www.mbta.com/stops/1057,
1058,River St @ Pleasant St,,42.363850,-71.108586,,0,,0,1058,,,,https://www.mbta.com/stops/1058,
10582,River St opp Fremont St,,42.269983,-71.089868,,0,,0,10582,,,,https://www.mbta.com/stops/10582,
10590,Massachusetts Ave @ Washington St,,42.336621,-71.076956,,0,,0,10590,,,,https://www.mbta.com/stops/10590,
106,Massachusetts Ave @ Hancock St,,42.368390,-71.108618,,0,,1,106,,,,https://www.mbta.com/stops/106,
1060,Magazine St @ Green St,,42.365114,-71.104311,,0,,1,1060,,,,https://www.mbta.com/stops/1060,
10603,Washington St @ Durnell Ave,,42.282287,-71.132671,,0,,0,10603,,,,https://www.mbta.com/stops/10603,
1061,Western Ave @ Kinnaird St,,42.364952,-71.108901,,0,,1,1061,,,,https://www.mbta.com/stops/1061,
10612,Washington St opp W Boundary Rd,,42.267920,-71.149996,,0,,0,10612,,,,https://www.mbta.com/stops/10612,
10618,Washington St @ Sumner St,,42.256411,-71.163235,,0,,0,10618,,,,https://www.mbta.com/stops/10618,
1062,Western Ave @ Howard St,,42.364798,-71.110649,,0,,0,1062,,,,https://www.mbta.com/stops/1062,
10625,Washington St opp Heron St,,42.268830,-71.148551,,0,,0,10625,,,,https://www.mbta.com/stops/10625,
10633,Washington St @ Rosecliff St,,42.282087,-71.132727,,0,,0,10633,,,,https://www.mbta.com/stops/10633,
1064,Western Ave @ Putnam Ave,,42.364492,-71.114114,,0,,0,1064,,,,https://www.mbta.com/stops/1064,
10642,Forest Hills,Forest Hills - Upper Busway,42.300749,-71.114314,level_ground,0,place-forhl,0,10642,,Upper Busway,,https://www.mbta.com/stops/place-forhl,
1067,Western Ave opp Genzyme,,42.364074,-71.119704,,0,,1,1067,,,,https://www.mbta.com/stops/1067,
1068,125 Western Ave,,42.363686,-71.124387,,0,,1,1068,,,,https://www.mbta.com/stops/1068,
107,Massachusetts Ave @ Dana St,,42.369265,-71.110773,,0,,1,107,,,,https://www.mbta.com/stops/107,
1070,Western Ave @ N Harvard St,,42.363284,-71.129148,,0,,1,1070,,,,https://www.mbta.com/stops/1070,
1071,Western Ave opp Riverdale St,,42.363253,-71.132079,,0,,1,1071,,,,https://www.mbta.com/stops/1071,
1072,Western Ave @ Everett St,,42.363179,-71.135542,,0,,1,1072,,,,https://www.mbta.com/stops/1072,
1074,367 Western Ave opp Brighton Mills Mall,,42.362807,-71.138519,,0,,1,1074,,,,https://www.mbta.com/stops/1074,
1075,Western Ave opp Litchfield St,,42.362662,-71.139575,,0,,1,1075,,,,https://www.mbta.com/stops/1075,
1076,445 Western Ave,,42.362341,-71.141360,,0,,0,1076,,,,https://www.mbta.com/stops/1076,
10768,Centre St @ Grove St,,42.268863,-71.161907,,0,,0,10768,,,,https://www.mbta.com/stops/10768,
10769,Centre St @ Grove St,,42.268891,-71.161806,,0,,0,10769,,,,https://www.mbta.com/stops/10769,
1077,Western Ave opp Richardson St,,42.361858,-71.144012,,0,,0,1077,,,,https://www.mbta.com/stops/1077,
10777,Spring St @ Cass St,,42.277170,-71.164194,,0,,1,10777,,,,https://www.mbta.com/stops/10777,
1079,Market St @ Vineland St,,42.356921,-71.148686,,0,,1,1079,,,,https://www.mbta.com/stops/1079,
108,Massachusetts Ave @ Trowbridge St,,42.370270,-71.112998,,0,,1,108,,,,https://www.mbta.com/stops/108,
1081,Market St opp Gardena St,,42.354329,-71.150346,,0,,1,1081,,,,https://www.mbta.com/stops/1081,
10820,Veterans Hospital West Roxbury,,42.274823,-71.172103,,0,,1,10820,,,,https://www.mbta.com/stops/10820,
10821,Charles Park Rd @ VFW Pkwy,,42.276826,-71.172521,,0,,0,10821,,,,https://www.mbta.com/stops/10821,
1083,Market St @ Arlington St,,42.351510,-71.152061,,0,,1,1083,,,,https://www.mbta.com/stops/1083,
10830,5 Charles Park Rd,,42.276931,-71.172561,,0,,1,10830,,,,https://www.mbta.com/stops/10830,
10832,Dedham Mall @ Old Navy,,42.253872,-71.168630,,0,,1,10832,,,,https://www.mbta.com/stops/10832,
10833,Dedham Mall @ Stop & Shop,,42.258725,-71.168530,,0,,1,10833,,,,https://www.mbta.com/stops/10833,
1084,Chestnut Hill Ave @ Washington St,,42.349027,-71.153531,,0,,0,1084,,,,https://www.mbta.com/stops/1084,
1085,Chestnut Hill Ave @ Academy Hill Rd,,42.347089,-71.153750,,0,,0,1085,,,,https://www.mbta.com/stops/1085,
1086,Chestnut Hill Ave @ Jackson Ave,,42.344738,-71.153293,,0,,1,1086,,,,https://www.mbta.com/stops/1086,
1087,Chestnut Hill Ave @ Wiltshire Rd,,42.343049,-71.153613,,0,,1,1087,,,,https://www.mbta.com/stops/1087,
1088,Chestnut Hill Ave @ Embassy Rd,,42.341436,-71.154691,,0,,1,1088,,,,https://www.mbta.com/stops/1088,
1089,Chestnut Hill Ave @ South St,,42.340486,-71.155288,,0,,1,1089,,,,https://www.mbta.com/stops/1089,
109,Massachusetts Ave @ Bow St,,42.372099,-71.115371,,0,,1,109,,,,https://www.mbta.com/stops/109,
1090,Chestnut Hill Ave @ Commonwealth Ave,,42.338330,-71.153702,,0,,1,1090,,,,https://www.mbta.com/stops/1090,
1092,Chestnut Hill Ave @ Beacon St,,42.336219,-71.151237,,0,,1,1092,,,,https://www.mbta.com/stops/1092,
10923,Cummins Hwy @ Wood Ave,,42.274133,-71.109187,,0,,1,10923,,,,https://www.mbta.com/stops/10923,
1093,Faneuil St @ Brackett St,,42.351893,-71.165214,,0,,0,1093,,,,https://www.mbta.com/stops/1093,
1094,Faneuil St @ Fairbanks St,,42.352366,-71.163015,,0,,0,1094,,,,https://www.mbta.com/stops/1094,
1095,Faneuil St @ Oakland St,,42.352600,-71.160686,,0,,1,1095,,,,https://www.mbta.com/stops/1095,
1097,Faneuil St @ S Hobart St,,42.353970,-71.158134,,0,,0,1097,,,,https://www.mbta.com/stops/1097,
1098,Hobart St @ Falkland St,,42.354858,-71.158565,,0,,0,1098,,,,https://www.mbta.com/stops/1098,
109800,Saratoga St @ Saint Edward Rd,,42.385269,-71.003096,,0,,0,109800,,,,https://www.mbta.com/stops/109800,
109802,Saratoga St @ Teragram St,,42.383937,-70.999451,,0,,0,109802,,,,https://www.mbta.com/stops/109802,
109803,Saratoga St @ Annavoy St,,42.383411,-70.997985,,0,,0,109803,,,,https://www.mbta.com/stops/109803,
109804,Main St @ Pleasant St,,42.382330,-70.991479,,0,,0,109804,,,,https://www.mbta.com/stops/109804,
109805,Main St @ Beal St,,42.382135,-70.988960,,0,,0,109805,,,,https://www.mbta.com/stops/109805,
109807,Hermon St @ Lincoln St,,42.379617,-70.985872,,0,,1,109807,,,,https://www.mbta.com/stops/109807,
109808,Hermon St opp Belcher St,,42.378273,-70.985764,,0,,0,109808,,,,https://www.mbta.com/stops/109808,
109809,Pauline St opp Woodside Ave,,42.375909,-70.987693,,0,,1,109809,,,,https://www.mbta.com/stops/109809,
109810,Pauline St @ Pleasant St,,42.374436,-70.991198,,0,,0,109810,,,,https://www.mbta.com/stops/109810,
109811,Pleasant St @ Somerset Ave,,42.373180,-70.989766,,0,,0,109811,,,,https://www.mbta.com/stops/109811,
109812,Pleasant St @ Bartlett Rd,,42.372904,-70.987328,,0,,0,109812,,,,https://www.mbta.com/stops/109812,
109814,Pleasant St @ Sunnyside Ave,,42.372595,-70.984668,,0,,0,109814,,,,https://www.mbta.com/stops/109814,
109815,Pleasant St @ Seaview Ave,,42.372389,-70.982920,,0,,0,109815,,,,https://www.mbta.com/stops/109815,
109816,Pleasant St @ Winthrop St,,42.372198,-70.981132,,0,,0,109816,,,,https://www.mbta.com/stops/109816,
109817,Washington Ave opp Willow Ave,,42.372168,-70.978521,,0,,0,109817,,,,https://www.mbta.com/stops/109817,
109818,Washington Ave opp Lewis Ave,,42.372021,-70.976842,,0,,0,109818,,,,https://www.mbta.com/stops/109818,
109819,Washington Ave opp River Rd,,42.371900,-70.974424,,0,,0,109819,,,,https://www.mbta.com/stops/109819,
109820,Washington Ave opp Veterans Rd,,42.372456,-70.971910,,0,,1,109820,,,,https://www.mbta.com/stops/109820,
109821,Veterans Rd @ Washington Ave,,42.372701,-70.971585,,0,,0,109821,,,,https://www.mbta.com/stops/109821,
109822,Veterans Rd @ Cutler St,,42.374284,-70.972804,,0,,0,109822,,,,https://www.mbta.com/stops/109822,
109823,Veterans Rd @ Levy Bramson Way,,42.375878,-70.974020,,0,,0,109823,,,,https://www.mbta.com/stops/109823,
109824,Veterans Rd opp Seafoam Ave,,42.377434,-70.974987,,0,,0,109824,,,,https://www.mbta.com/stops/109824,
109825,Veterans Rd @ Hadassah Way,,42.378929,-70.975801,,0,,0,109825,,,,https://www.mbta.com/stops/109825,
109826,Veterans Rd @ Shirley St,,42.381135,-70.975503,,0,,0,109826,,,,https://www.mbta.com/stops/109826,
109827,Veterans Rd @ Locust St,,42.382563,-70.973827,,0,,0,109827,,,,https://www.mbta.com/stops/109827,
109828,Crest Ave @ Grovers Ave,,42.384521,-70.973152,,0,,0,109828,,,,https://www.mbta.com/stops/109828,
109829,Crest Ave @ Highland Ave,,42.386455,-70.975745,,0,,0,109829,,,,https://www.mbta.com/stops/109829,
109830,Revere St opp Summit Ave,,42.384736,-70.978052,,0,,1,109830,,,,https://www.mbta.com/stops/109830,
109831,Revere St @ Governors Dr,,42.382480,-70.980365,,0,,0,109831,,,,https://www.mbta.com/stops/109831,
109832,Revere St @ Winthrop St,,42.381670,-70.982270,,0,,0,109832,,,,https://www.mbta.com/stops/109832,
109834,Main St @ Douglas St,,42.381999,-70.986122,,0,,0,109834,,,,https://www.mbta.com/stops/109834,
109835,Main St @ Fairview St,,42.382255,-70.988942,,0,,0,109835,,,,https://www.mbta.com/stops/109835,
109836,Main St @ Pleasant St,,42.382470,-70.991716,,0,,0,109836,,,,https://www.mbta.com/stops/109836,
109837,Saratoga St opp Annavoy St,,42.383468,-70.997773,,0,,0,109837,,,,https://www.mbta.com/stops/109837,
109838,Saratoga St opp Teragram St,,42.383963,-70.999159,,0,,0,109838,,,,https://www.mbta.com/stops/109838,
109840,Saratoga St @ Saint Edward Rd,,42.385299,-71.002806,,0,,0,109840,,,,https://www.mbta.com/stops/109840,
109841,Shirley St opp Moore St,,42.370713,-70.970441,,0,,1,109841,,,,https://www.mbta.com/stops/109841,
109842,Shirley St opp Crystal Cove Ave,,42.369467,-70.971284,,0,,0,109842,,,,https://www.mbta.com/stops/109842,
109843,Shirley St @ Winthrop Yacht Club,,42.368585,-70.971705,,0,,0,109843,,,,https://www.mbta.com/stops/109843,
109844,Shirley St @ Pontos St,,42.365380,-70.969320,,0,,0,109844,,,,https://www.mbta.com/stops/109844,
109845,Shirley St @ Petrel St,,42.363754,-70.970139,,0,,0,109845,,,,https://www.mbta.com/stops/109845,
109846,Shirley St opp Yirrell Beach,,42.363030,-70.970390,,0,,0,109846,,,,https://www.mbta.com/stops/109846,
109847,Shirley St @ Nerious St,,42.362146,-70.970600,,0,,0,109847,,,,https://www.mbta.com/stops/109847,
109848,Shirley St @ Bay View Ave,,42.360982,-70.970887,,0,,0,109848,,,,https://www.mbta.com/stops/109848,
109849,Tafts Ave @ Otis St,,42.358897,-70.970587,,0,,0,109849,,,,https://www.mbta.com/stops/109849,
109850,Tafts Ave @ Townsend St,,42.358426,-70.970394,,0,,0,109850,,,,https://www.mbta.com/stops/109850,
109853,Deer Island - MWRA Gate,,42.355744,-70.968137,,0,,0,109853,,,,https://www.mbta.com/stops/109853,
109856,Tafts Ave opp Townsend St,,42.358415,-70.970200,,0,,0,109856,,,,https://www.mbta.com/stops/109856,
109857,Tafts Ave @ Otis St,,42.358937,-70.970453,,0,,0,109857,,,,https://www.mbta.com/stops/109857,
109858,Shirley St @ Bay View Ave,,42.360776,-70.970795,,0,,0,109858,,,,https://www.mbta.com/stops/109858,
109859,Shirley St @ Nerious St,,42.361946,-70.970483,,0,,0,109859,,,,https://www.mbta.com/stops/109859,
109860,Shirley St @ Yirrell Beach,,42.362996,-70.970216,,0,,0,109860,,,,https://www.mbta.com/stops/109860,
109861,Shirley St @ Petrel St,,42.363542,-70.970071,,0,,0,109861,,,,https://www.mbta.com/stops/109861,
109862,Shirley St opp Pontos St,,42.365243,-70.969210,,0,,2,109862,,,,https://www.mbta.com/stops/109862,
109863,Shirley St opp Winthrop Yacht Club,,42.368589,-70.971565,,0,,2,109863,,,,https://www.mbta.com/stops/109863,
109864,Shirley St @ Crystal Cove Ave,,42.369295,-70.971194,,0,,0,109864,,,,https://www.mbta.com/stops/109864,
109865,Shirley St @ Moore St,,42.370549,-70.970361,,0,,0,109865,,,,https://www.mbta.com/stops/109865,
109868,Main St @ Hermon St,,42.381889,-70.986150,,0,,0,109868,,,,https://www.mbta.com/stops/109868,
109870,Main St @ Winthrop St,,42.381544,-70.982478,,0,,0,109870,,,,https://www.mbta.com/stops/109870,
109871,Revere St opp Governors Dr,,42.382314,-70.980466,,0,,0,109871,,,,https://www.mbta.com/stops/109871,
109872,Revere St @ Summit Ave,,42.384712,-70.977889,,0,,0,109872,,,,https://www.mbta.com/stops/109872,
109873,Revere St @ Crest Ave,,42.386434,-70.975916,,0,,0,109873,,,,https://www.mbta.com/stops/109873,
109874,Crest Ave @ Grovers Ave,,42.384428,-70.973253,,0,,0,109874,,,,https://www.mbta.com/stops/109874,
109875,Beach Rd @ Locust St,,42.382589,-70.973709,,0,,0,109875,,,,https://www.mbta.com/stops/109875,
109877,Shirley St opp Coral Ave,,42.379054,-70.975001,,0,,0,109877,,,,https://www.mbta.com/stops/109877,
109878,Shirley St opp Seafoam Ave,,42.377526,-70.974688,,0,,0,109878,,,,https://www.mbta.com/stops/109878,
109879,Shirley St @ Levy Bramson Way,,42.376141,-70.973918,,0,,0,109879,,,,https://www.mbta.com/stops/109879,
109880,Shirley St @ Cutler St,,42.374554,-70.972555,,0,,0,109880,,,,https://www.mbta.com/stops/109880,
109883,Washington Ave @ River Rd,,42.372069,-70.974240,,0,,0,109883,,,,https://www.mbta.com/stops/109883,
109884,Washington Ave @ Lewis Ave,,42.372114,-70.976577,,0,,0,109884,,,,https://www.mbta.com/stops/109884,
109885,Washington Ave @ Willow Ave,,42.372280,-70.978265,,0,,0,109885,,,,https://www.mbta.com/stops/109885,
109886,Washington Ave @ Winthrop St,,42.372303,-70.980875,,0,,0,109886,,,,https://www.mbta.com/stops/109886,
109887,Pleasant St @ Vine Ave,,42.372479,-70.982654,,0,,0,109887,,,,https://www.mbta.com/stops/109887,
109888,Pleasant St @ Buchanan St,,42.372686,-70.984401,,0,,0,109888,,,,https://www.mbta.com/stops/109888,
109890,Pleasant St @ Bartlett Rd,,42.372995,-70.987061,,0,,0,109890,,,,https://www.mbta.com/stops/109890,
109891,Pleasant St @ Somerset Ave,,42.373301,-70.989729,,0,,0,109891,,,,https://www.mbta.com/stops/109891,
109892,Pauline St @ Pleasant St,,42.374310,-70.991123,,0,,1,109892,,,,https://www.mbta.com/stops/109892,
109893,Pauline St @ Woodside Ave,,42.375811,-70.987603,,0,,1,109893,,,,https://www.mbta.com/stops/109893,
109894,Hermon St @ Belcher St,,42.378202,-70.985457,,0,,0,109894,,,,https://www.mbta.com/stops/109894,
109895,Hermon St @ Lincoln St,,42.379628,-70.985699,,0,,0,109895,,,,https://www.mbta.com/stops/109895,
109898,Shirley St @ Washington Ave,,42.372758,-70.971283,,0,,0,109898,,,,https://www.mbta.com/stops/109898,
109899,Revere St @ Golden Dr,,42.385674,-70.976635,,0,,1,109899,,,,https://www.mbta.com/stops/109899,
109900,Revere St @ Hutchinson St,,42.385582,-70.976529,,0,,0,109900,,,,https://www.mbta.com/stops/109900,
109901,Shirley St @ Beach Rd,,42.380764,-70.974996,,0,,0,109901,,,,https://www.mbta.com/stops/109901,
109902,Shirley St opp Wave Way,,42.376909,-70.974402,,0,,0,109902,,,,https://www.mbta.com/stops/109902,
109905,Pauline St @ Hermon St,,42.376865,-70.984489,,0,,1,109905,,,,https://www.mbta.com/stops/109905,
109906,Crest Ave @ Hutchinson St,,42.385180,-70.974236,,0,,0,109906,,,,https://www.mbta.com/stops/109906,
109914,Shirley St @ Tafts Ave,,42.360110,-70.971369,,0,,0,109914,,,,https://www.mbta.com/stops/109914,
109915,Hermon St @ Pauline St,,42.377011,-70.984515,,0,,0,109915,,,,https://www.mbta.com/stops/109915,
11,Melnea Cass Blvd @ Kerr Way,,42.334763,-71.084459,,0,,0,11,,,,https://www.mbta.com/stops/11,
110,Massachusetts Ave @ Holyoke St,,42.373259,-71.118124,,0,,1,110,,,,https://www.mbta.com/stops/110,
1100,Hobart St @ Brooks St,,42.355539,-71.162428,,0,,0,1100,,,,https://www.mbta.com/stops/1100,
1102,N Beacon St @ Parsons St,,42.358297,-71.157999,,0,,1,1102,,,,https://www.mbta.com/stops/1102,
1103,N Beacon St @ Goodenough St,,42.357577,-71.154024,,0,,0,1103,,,,https://www.mbta.com/stops/1103,
1104,N Beacon St opp Vineland St,,42.357000,-71.152801,,0,,0,1104,,,,https://www.mbta.com/stops/1104,
1105,N Beacon @ Market St,,42.355923,-71.148687,,0,,0,1105,,,,https://www.mbta.com/stops/1105,
1107,N Beacon St @ Etna St,,42.355387,-71.146497,,0,,1,1107,,,,https://www.mbta.com/stops/1107,
11070,Life St @ Guest St,,42.356930,-71.145630,,0,,0,11070,,,,https://www.mbta.com/stops/11070,
11071,Arthur St @ Guest St - Stop & Shop,,42.356313,-71.141651,,0,,0,11071,,,,https://www.mbta.com/stops/11071,
1109,N Beacon St @ Saunders St,,42.354115,-71.141510,,0,,1,1109,,,,https://www.mbta.com/stops/1109,
111,Mt Vernon St @ South Point Dr,,42.317184,-71.040238,,0,,1,111,,,,https://www.mbta.com/stops/111,
1110,N Beacon St @ Cambridge St,,42.353583,-71.138173,,0,,1,1110,,,,https://www.mbta.com/stops/1110,
1111,Cambridge St opp Hano St,,42.353931,-71.136365,,0,,1,1111,,,,https://www.mbta.com/stops/1111,
11111,UMass Boston Busway,,42.311967,-71.038916,,0,,1,11111,,,,https://www.mbta.com/stops/11111,
111146,Pemberton Point,,42.303676,-70.919766,,0,,0,111146,,,,https://www.mbta.com/stops/111146,
111152,Main St from Pemberton Pnt to Spring St (FLAG),,42.303427,-70.913293,,0,,1,111152,,,,https://www.mbta.com/stops/111152,
111159,Spring St from Main St to Nantasket Ave (FLAG),,42.302958,-70.902498,,0,,0,111159,,,,https://www.mbta.com/stops/111159,
111179,Nantasket Ave from Y St to A St (FLAG),,42.298619,-70.882178,,0,,1,111179,,,,https://www.mbta.com/stops/111179,
111196,Nantasket Ave from A St to Kenberma St (FLAG),,42.287379,-70.876717,,0,,0,111196,,,,https://www.mbta.com/stops/111196,
1112,Cambridge St @ Harvard Ave,,42.355252,-71.133178,,0,,1,1112,,,,https://www.mbta.com/stops/1112,
111206,Nantasket Ave from Kenberma St to Bay St (FLAG),,42.279455,-70.869833,,0,,0,111206,,,,https://www.mbta.com/stops/111206,
111214,Nantasket Ave from Bay St to Wash Blvd (FLAG),,42.273140,-70.860180,,0,,1,111214,,,,https://www.mbta.com/stops/111214,
111217,Nantasket Ave from Wash Blvd to Park Ave (FLAG),,42.270704,-70.856877,,0,,1,111217,,,,https://www.mbta.com/stops/111217,
111219,Park Ave from Nantasket Ave to Rockland Cir (FLAG),,42.267539,-70.853300,,0,,0,111219,,,,https://www.mbta.com/stops/111219,
111220,Rockland Cir from Park to Rockland House Rd (FLAG),,42.266442,-70.853888,,0,,0,111220,,,,https://www.mbta.com/stops/111220,
111222,Wash Blvd from Rockland House Rd to Med Ctr (FLAG),,42.264870,-70.857550,,0,,0,111222,,,,https://www.mbta.com/stops/111222,
111223,Wash Blvd @ Hull Medical Ctr (FLAG),,42.263534,-70.859295,,0,,0,111223,,,,https://www.mbta.com/stops/111223,
111232,Atlantic Ave - Nantasket Ave to School St (FLAG),,42.265539,-70.846749,,0,,0,111232,,,,https://www.mbta.com/stops/111232,
111234,School St - Atlantic Ave to Nantasket Ave (FLAG),,42.264411,-70.845970,,0,,0,111234,,,,https://www.mbta.com/stops/111234,
111236,Nantasket Ave from School St to Rockland St (FLAG),,42.261535,-70.845016,,0,,0,111236,,,,https://www.mbta.com/stops/111236,
111248,Summer St from Rockland St to Cushing Way (FLAG),,42.247716,-70.876317,,0,,0,111248,,,,https://www.mbta.com/stops/111248,
111251,Summer St from Cushing Way to Water St (FLAG),,42.245686,-70.882913,,0,,0,111251,,,,https://www.mbta.com/stops/111251,
111258,Summer St from Water St to Cushing Way (FLAG),,42.245593,-70.882668,,0,,0,111258,,,,https://www.mbta.com/stops/111258,
1113,Cambridge St @ Linden St,,42.355943,-71.131448,,0,,1,1113,,,,https://www.mbta.com/stops/1113,
11131,Centre St @ Roseway St,,42.318993,-71.111932,,0,,0,11131,,,,https://www.mbta.com/stops/11131,
1114,Cambridge St @ N Harvard St,,42.357758,-71.126505,,0,,0,1114,,,,https://www.mbta.com/stops/1114,
11148,Malcolm X Blvd @ Madison Park HS,,42.331221,-71.090588,,0,,1,11148,,,,https://www.mbta.com/stops/11148,
11149,Malcolm X Blvd @ O'Bryant HS,,42.330732,-71.088420,,0,,1,11149,,,,https://www.mbta.com/stops/11149,
1115,Cambridge St @ Seattle St,,42.358658,-71.123967,,0,,0,1115,,,,https://www.mbta.com/stops/1115,
11158,Harrison Ave @ E Brookline St,,42.338393,-71.070917,,0,,1,11158,,,,https://www.mbta.com/stops/11158,
1116,Cambridge St @ Mass Pike Exit,,42.360640,-71.118544,,0,,2,1116,,,,https://www.mbta.com/stops/1116,
11164,Centre St @ Burroughs St,,42.311466,-71.114500,,0,,0,11164,,,,https://www.mbta.com/stops/11164,
111640,"Cobbs Corner, Canton",,42.139820,-71.148314,,0,,0,111640,,,,https://www.mbta.com/stops/111640,
111642,Washington St from Cobbs Corner to High St (FLAG),,42.144333,-71.149085,,0,,0,111642,,,,https://www.mbta.com/stops/111642,
111648,Washington St from High St to Church St (FLAG),,42.150599,-71.149245,,0,,0,111648,,,,https://www.mbta.com/stops/111648,
111653,Washington St - Church St to Canton Ctr Sta (FLAG),,42.154215,-71.145689,,0,,0,111653,,,,https://www.mbta.com/stops/111653,
111656,Washington St opp Canton Center Station,,42.156617,-71.145462,,0,,0,111656,,,,https://www.mbta.com/stops/111656,
111660,Washington St - Canton Ctr Sta to Pequit St (FLAG),,42.158794,-71.144918,,0,,0,111660,,,,https://www.mbta.com/stops/111660,
111672,Washington St - Chapman St to Pleasant St (FLAG),,42.172307,-71.139199,,0,,0,111672,,,,https://www.mbta.com/stops/111672,
111685,Washington St - Pecunit St to Turnpike St (FLAG),,42.185813,-71.121815,,0,,0,111685,,,,https://www.mbta.com/stops/111685,
1117,Putnam Ave @ Allston St,,42.361710,-71.113532,,0,,0,1117,,,,https://www.mbta.com/stops/1117,
111711,Blue Hill Ave - Barbara Ln to Valentine Rd (FLAG),,42.250044,-71.102039,,0,,0,111711,,,,https://www.mbta.com/stops/111711,
111720,Blue Hill Ave - Valentine Rd to Tucker St (FLAG),,42.256290,-71.098789,,0,,0,111720,,,,https://www.mbta.com/stops/111720,
111729,Blue Hill Ave - Tucker St to Brush Hill Rd (FLAG),,42.262627,-71.095503,,0,,0,111729,,,,https://www.mbta.com/stops/111729,
111738,Blue Hill Ave - Brush Hill Rd to Tucker St (FLAG),,42.262866,-71.095677,,0,,0,111738,,,,https://www.mbta.com/stops/111738,
111747,Blue Hill Ave - Tucker St to Valentine Rd (FLAG),,42.256642,-71.098896,,0,,0,111747,,,,https://www.mbta.com/stops/111747,
111762,Blue Hill Ave from Barbara Ln to Curry Coll (FLAG),,42.239391,-71.108505,,0,,2,111762,,,,https://www.mbta.com/stops/111762,
111775,Washington St from Royall St to Turnpike St (FLAG),,42.197154,-71.119299,,0,,0,111775,,,,https://www.mbta.com/stops/111775,
111787,Washington St - Pecunit St to Pleasant St (FLAG),,42.176598,-71.131430,,0,,0,111787,,,,https://www.mbta.com/stops/111787,
111791,Washington St - Pleasant St to Chapman St (FLAG),,42.172526,-71.139085,,0,,0,111791,,,,https://www.mbta.com/stops/111791,
111796,Washington St from Chapman St to Lewis St (FLAG),,42.165614,-71.142813,,0,,0,111796,,,,https://www.mbta.com/stops/111796,
1118,Magazine St @ Putnam Ave,,42.359196,-71.110890,,0,,0,1118,,,,https://www.mbta.com/stops/1118,
111801,Washington St - Lewis St to Canton Ctr sta (FLAG),,42.159019,-71.145006,,0,,0,111801,,,,https://www.mbta.com/stops/111801,
111803,Washington St @ Canton Center Station,,42.156685,-71.145661,,0,,0,111803,,,,https://www.mbta.com/stops/111803,
111806,Washington St - Canton Ctr Sta to Church St (FLAG),,42.154326,-71.145862,,0,,1,111806,,,,https://www.mbta.com/stops/111806,
111810,Washington St from Church St to High St (FLAG),,42.150784,-71.149384,,0,,0,111810,,,,https://www.mbta.com/stops/111810,
111815,Washington St from High St to Cobbs Corner (FLAG),,42.144230,-71.149281,,0,,0,111815,,,,https://www.mbta.com/stops/111815,
111823,Rockland St from Kilby St to Nantasket Ave (FLAG),,42.255329,-70.851812,,0,,0,111823,,,,https://www.mbta.com/stops/111823,
111828,School St - Nantasket Ave to Atlantic Ave (FLAG),,42.264125,-70.845936,,0,,0,111828,,,,https://www.mbta.com/stops/111828,
111830,Atlantic Ave - School St to Nantasket Ave (FLAG),,42.265653,-70.846620,,0,,0,111830,,,,https://www.mbta.com/stops/111830,
111842,Rockland Circle from Rockland House to Park (FLAG),,42.266352,-70.853777,,0,,0,111842,,,,https://www.mbta.com/stops/111842,
111844,Nantasket Ave from Park Ave to Wash Blvd (FLAG),,42.270665,-70.856588,,0,,1,111844,,,,https://www.mbta.com/stops/111844,
111848,Nantasket Ave from Wash Blvd to Water St (FLAG),,42.274431,-70.860687,,0,,1,111848,,,,https://www.mbta.com/stops/111848,
111855,Nantasket Ave from Water St to Kenberma St (FLAG),,42.279496,-70.869545,,0,,0,111855,,,,https://www.mbta.com/stops/111855,
111864,Nantasket Ave from Kenburma St to A St (FLAG),,42.287264,-70.876468,,0,,0,111864,,,,https://www.mbta.com/stops/111864,
11187,Washington St @ School St,,42.314697,-71.099462,,0,,1,11187,,,,https://www.mbta.com/stops/11187,
111881,Nantasket Ave from A St to Y St (FLAG),,42.298480,-70.881953,,0,,0,111881,,,,https://www.mbta.com/stops/111881,
111895,Nantasket Ave from Y St to Spring St (FLAG),,42.308765,-70.889696,,0,,0,111895,,,,https://www.mbta.com/stops/111895,
1119,Magazine St @ Erie St,,42.360978,-71.108911,,0,,1,1119,,,,https://www.mbta.com/stops/1119,
111907,Main St from Spring St to Pemberton Pnt (FLAG),,42.303557,-70.913072,,0,,0,111907,,,,https://www.mbta.com/stops/111907,
111997,Highland Ave @ Doonan St (FLAG),,42.438144,-71.088598,,0,,0,111997,,,,https://www.mbta.com/stops/111997,
1120,Magazine St @ McTernan St,,42.361487,-71.108368,,0,,1,1120,,,,https://www.mbta.com/stops/1120,
112011,Fulton St from Molyneaux Cir to Foss St (FLAG),,42.436137,-71.095822,,0,,0,112011,,,,https://www.mbta.com/stops/112011,
112019,Fulton St from Foss St to Fellsway (FLAG),,42.428728,-71.098953,,0,,0,112019,,,,https://www.mbta.com/stops/112019,
112029,Webster St from Fulton St to Forest St (FLAG),,42.422587,-71.104079,,0,,0,112029,,,,https://www.mbta.com/stops/112029,
112037,Lawrence Memorial Hospital,,42.426217,-71.110797,,0,,1,112037,,,,https://www.mbta.com/stops/112037,
112046,Forest St from Webster St to Medford Sq (FLAG),,42.420895,-71.108275,,0,,1,112046,,,,https://www.mbta.com/stops/112046,
112068,Medford Stop & Shop,,42.408806,-71.086469,,0,,0,112068,,,,https://www.mbta.com/stops/112068,
112094,Forest St from Medford Sq to Webster St (FLAG),,42.421016,-71.108015,,0,,0,112094,,,,https://www.mbta.com/stops/112094,
1121,Magazine St @ Perry St,,42.362343,-71.107445,,0,,1,1121,,,,https://www.mbta.com/stops/1121,
112112,Webster St from Forest St to Fulton St (FLAG),,42.422467,-71.104055,,0,,0,112112,,,,https://www.mbta.com/stops/112112,
112113,Fulton St from Fellsway to Webster St (FLAG),,42.424507,-71.102063,,0,,0,112113,,,,https://www.mbta.com/stops/112113,
112116,Fulton St from Webster St to Fellsway (FLAG),,42.424483,-71.101895,,0,,0,112116,,,,https://www.mbta.com/stops/112116,
112121,Fulton St from Fellsway to Foss St (FLAG),,42.428684,-71.098715,,0,,0,112121,,,,https://www.mbta.com/stops/112121,
112129,Fulton St from Foss St to Molyneaux Cir (FLAG),,42.436059,-71.095679,,0,,0,112129,,,,https://www.mbta.com/stops/112129,
112131,Lawrence Rd from Forest St to Hospital (FLAG),,42.424894,-71.107674,,0,,1,112131,,,,https://www.mbta.com/stops/112131,
11218,Congress St @ A St,,42.350434,-71.048494,,0,,1,11218,,,,https://www.mbta.com/stops/11218,
11219,A St @ Necco St,,42.348062,-71.050338,,0,,1,11219,,,,https://www.mbta.com/stops/11219,
112196,Lawrence Rd from Hospital to Forest St (FLAG),,42.424788,-71.107881,,0,,1,112196,,,,https://www.mbta.com/stops/112196,
1122,Magazine St @ Auburn St,,42.363868,-71.105733,,0,,1,1122,,,,https://www.mbta.com/stops/1122,
11228,Tremont St @ Lenox St,,42.337782,-71.083038,,0,,0,11228,,,,https://www.mbta.com/stops/11228,
1123,Green St @ Magazine St,,42.364935,-71.104405,,0,,1,1123,,,,https://www.mbta.com/stops/1123,
11241,South Bay Mall @ Target,,42.329919,-71.061783,,0,,2,11241,,,,https://www.mbta.com/stops/11241,
11242,South Bay Mall @ Office Max,,42.327477,-71.061819,,0,,1,11242,,,,https://www.mbta.com/stops/11242,
11243,South Bay Mall @ Stop and Shop,,42.326421,-71.064691,,0,,1,11243,,,,https://www.mbta.com/stops/11243,
11245,Tremont St @ Berkeley St,,42.345466,-71.069800,,0,,1,11245,,,,https://www.mbta.com/stops/11245,
1125,Magazine St @ William St,,42.363492,-71.106339,,0,,0,1125,,,,https://www.mbta.com/stops/1125,
11257,Malcolm X Blvd @ King St,,42.331197,-71.092692,,0,,1,11257,,,,https://www.mbta.com/stops/11257,
11259,Malcolm X Blvd @ Shawmut Ave,,42.329483,-71.086203,,0,,0,11259,,,,https://www.mbta.com/stops/11259,
1128,South St @ Sedgwick St,,42.308588,-71.115487,,0,,0,1128,,,,https://www.mbta.com/stops/1128,
1129,Centre St @ Seaverns Ave,,42.312198,-71.114144,,0,,1,1129,,,,https://www.mbta.com/stops/1129,
113,Portland St @ Causeway St,,42.364737,-71.062198,,0,place-north,1,113,,,,https://www.mbta.com/stops/place-north,
1130,Centre St @ Saint John St,,42.314197,-71.114036,,0,,0,1130,,,,https://www.mbta.com/stops/1130,
11302,Harvard St @ Verndale St,,42.348388,-71.129539,,0,,1,11302,,,,https://www.mbta.com/stops/11302,
11319,W Second St opp W Third St,,42.343047,-71.055038,,0,,1,11319,,,,https://www.mbta.com/stops/11319,
1132,Centre St @ Robinwood Ave,,42.316951,-71.113368,,0,,1,1132,,,,https://www.mbta.com/stops/1132,
11323,Malcolm X Blvd opp O'Bryant HS,,42.330801,-71.089207,,0,,1,11323,,,,https://www.mbta.com/stops/11323,
1134,Centre St @ Paul Gore St,,42.321048,-71.110438,,0,,1,1134,,,,https://www.mbta.com/stops/1134,
1135,Centre St @ Sheridan St,,42.322164,-71.109040,,0,,1,1135,,,,https://www.mbta.com/stops/1135,
1136,Centre St @ Wyman St,,42.322458,-71.106967,,0,,1,1136,,,,https://www.mbta.com/stops/1136,
1137,Centre St @ Mozart St,,42.322684,-71.104662,,0,,1,1137,,,,https://www.mbta.com/stops/1137,
1138,Centre St @ Estrella St,,42.322856,-71.102979,,0,,1,1138,,,,https://www.mbta.com/stops/1138,
11384,Dartmouth St @ Back Bay Sta,,42.347346,-71.075956,,0,place-bbsta,1,11384,,,,https://www.mbta.com/stops/place-bbsta,
11388,Huntington Ave @ Belvidere St,,42.345344,-71.082045,,0,,0,11388,,,,https://www.mbta.com/stops/11388,
11390,Dalton St @ Boylston St,,42.347779,-71.085476,,0,,1,11390,,,,https://www.mbta.com/stops/11390,
11391,Boylston St @ Massachusetts Ave,,42.347386,-71.087495,,0,,1,11391,,,,https://www.mbta.com/stops/11391,
114,Causeway St @ North Station,,42.365748,-71.060867,,0,place-north,1,114,,,,https://www.mbta.com/stops/place-north,
1140,Centre St @ Highland St,,42.324791,-71.097571,,0,,1,1140,,,,https://www.mbta.com/stops/1140,
1141,Centre St @ Marcella St,,42.326102,-71.096534,,0,,1,1141,,,,https://www.mbta.com/stops/1141,
11410,Cambridge St @ Max Ave,,42.371928,-71.087532,,0,,0,11410,,,,https://www.mbta.com/stops/11410,
11413,Columbus Ave @ Walnut Ave,,42.313283,-71.095326,,0,,0,11413,,,,https://www.mbta.com/stops/11413,
11419,A St @ Mt Washington Ave,,42.346440,-71.051618,,0,,1,11419,,,,https://www.mbta.com/stops/11419,
1142,Centre St @ Cedar St,,42.327778,-71.095518,,0,,0,1142,,,,https://www.mbta.com/stops/1142,
1143,Centre St @ Linwood St,,42.328574,-71.094998,,0,,1,1143,,,,https://www.mbta.com/stops/1143,
1144,Centre St @ Highland Ave,,42.329657,-71.093032,,0,,1,1144,,,,https://www.mbta.com/stops/1144,
1145,42A John Eliot Sq,,42.329962,-71.091547,,0,,1,1145,,,,https://www.mbta.com/stops/1145,
1146,42 Dudley St,,42.329396,-71.089128,,0,,0,1146,,,,https://www.mbta.com/stops/1146,
1147,Dudley St @ Shawmut Ave,,42.328969,-71.086206,,0,,0,1147,,,,https://www.mbta.com/stops/1147,
1148,Malcolm X Blvd @ Shawmut Ave,,42.329687,-71.086130,,0,,0,1148,,,,https://www.mbta.com/stops/1148,
11481,Herald St @ Harrison Ave,,42.346301,-71.063361,,0,,1,11481,,,,https://www.mbta.com/stops/11481,
11482,Dudley St @ Uphams Corner Station,,42.318783,-71.069142,,0,,1,11482,,,,https://www.mbta.com/stops/11482,
114878,Nantasket Ave from Atlantic Ave to Park Ave (FLAG),,42.267545,-70.851408,,0,,1,114878,,,,https://www.mbta.com/stops/114878,
114882,Nantasket Ave from Park Ave to Atlantic Ave (FLAG),,42.267524,-70.851699,,0,,1,114882,,,,https://www.mbta.com/stops/114882,
114886,Wash Blvd from Rockland St to Hull Med Ctr (FLAG),,42.260866,-70.862244,,0,,1,114886,,,,https://www.mbta.com/stops/114886,
114887,Wash Blvd Opp Hull Medical Ctr (FLAG),,42.263218,-70.859479,,0,,0,114887,,,,https://www.mbta.com/stops/114887,
114888,Wash Blvd - Rockland House Rd to Nantasket Ave,,42.270226,-70.857124,,0,,0,114888,,,,https://www.mbta.com/stops/114888,
114893,Wash Blvd - Nantasket Ave to Rockland House Rd,,42.270275,-70.857409,,0,,1,114893,,,,https://www.mbta.com/stops/114893,
114895,Hull Medical Center (FLAG),,42.263216,-70.859976,,0,,2,114895,,,,https://www.mbta.com/stops/114895,
114896,Wash Blvd from Hull Med Ctr to Rockland St (FLAG),,42.261080,-70.862254,,0,,0,114896,,,,https://www.mbta.com/stops/114896,
1149,205 Roxbury St,,42.330096,-71.091343,,0,,1,1149,,,,https://www.mbta.com/stops/1149,
115,Northern Ave @ Federal Courthouse,,42.353418,-71.046815,,0,,0,115,,,,https://www.mbta.com/stops/115,
1150,Centre St @ Gardner St,,42.329386,-71.094099,,0,,1,1150,,,,https://www.mbta.com/stops/1150,
11501,Dudley St @ Virginia St,,42.317585,-71.066499,,0,,1,11501,,,,https://www.mbta.com/stops/11501,
1151,Centre St @ Cedar St,,42.327548,-71.095812,,0,,1,1151,,,,https://www.mbta.com/stops/1151,
11512,Bowdoin opp Mt Ida,,42.307218,-71.066004,,0,,1,11512,,,,https://www.mbta.com/stops/11512,
1152,Centre St @ New Heath St,,42.326053,-71.096665,,0,,1,1152,,,,https://www.mbta.com/stops/1152,
11521,131 Morton St,,42.300136,-71.106422,,0,,0,11521,,,,https://www.mbta.com/stops/11521,
1153,Centre St @ Columbus Ave,,42.324917,-71.098110,,0,,0,1153,,,,https://www.mbta.com/stops/1153,
11531,Jackson Square,Jackson Square - Busway,42.323074,-71.099546,level_ground,0,place-jaksn,0,11531,,Busway,,https://www.mbta.com/stops/place-jaksn,
11532,W Broadway @ Linsky Barry Ct,,42.339673,-71.052303,,0,,0,11532,,,,https://www.mbta.com/stops/11532,
1154,Heath St @ Bromley St,,42.325366,-71.099579,,0,,0,1154,,,,https://www.mbta.com/stops/1154,
11545,Lee St @ Boylston St,,42.325809,-71.140476,,0,,0,11545,,,,https://www.mbta.com/stops/11545,
1155,Centre St @ Bickford St,,42.322950,-71.102275,,0,,0,1155,,,,https://www.mbta.com/stops/1155,
1156,Centre St @ Sunnyside St,,42.322676,-71.105716,,0,,1,1156,,,,https://www.mbta.com/stops/1156,
1158,Centre St @ Creighton St,,42.322368,-71.108661,,0,,1,1158,,,,https://www.mbta.com/stops/1158,
11587,Circuit Dr @ Glen Ln,,42.305236,-71.094725,,0,,2,11587,,,,https://www.mbta.com/stops/11587,
1159,Centre St @ Barbara St,,42.321093,-71.110544,,0,,1,1159,,,,https://www.mbta.com/stops/1159,
11592,Ruggles St @ Cabot St,,42.333862,-71.087173,,0,,0,11592,,,,https://www.mbta.com/stops/11592,
11593,Ruggles St opp Kerr Way,,42.333186,-71.086016,,0,,1,11593,,,,https://www.mbta.com/stops/11593,
1160,S Huntington Ave @ Moraine St,,42.319618,-71.111729,,0,,0,1160,,,,https://www.mbta.com/stops/1160,
11609,Centre St @ S Huntington Ave,,42.320086,-71.111338,,0,,1,11609,,,,https://www.mbta.com/stops/11609,
1161,Centre St @ Lochstead Ave,,42.317365,-71.113229,,0,,1,1161,,,,https://www.mbta.com/stops/1161,
11613,W Boundary Rd @ Washington St,,42.267432,-71.149989,,0,,0,11613,,,,https://www.mbta.com/stops/11613,
11618,Georgetowne Dr @ Georgetowne Pl,,42.255640,-71.143709,,0,,0,11618,,,,https://www.mbta.com/stops/11618,
1164,Centre St @ Myrtle St,,42.313306,-71.114160,,0,,1,1164,,,,https://www.mbta.com/stops/1164,
1165,Washington St @ W Walnut Pk,,42.316446,-71.097563,,0,,0,1165,,,,https://www.mbta.com/stops/1165,
1166,Washington St @ Cobden St,,42.317579,-71.096449,,0,,1,1166,,,,https://www.mbta.com/stops/1166,
1167,Washington St opp Dimock St,,42.318899,-71.095139,,0,,1,1167,,,,https://www.mbta.com/stops/1167,
11673,209 Cambridge St,,42.452997,-71.157950,,0,,0,11673,,,,https://www.mbta.com/stops/11673,
1168,Washington St @ Townsend St,,42.319958,-71.094067,,0,,1,1168,,,,https://www.mbta.com/stops/1168,
11689,Burlington Mall Rd opp NE Executive Pk,,42.485919,-71.211728,,0,,0,11689,,,,https://www.mbta.com/stops/11689,
1169,Washington St @ Brinton St,,42.320829,-71.092974,,0,,1,1169,,,,https://www.mbta.com/stops/1169,
11694,S Bedford St @ Wayside Rd,,42.484199,-71.194920,,0,,0,11694,,,,https://www.mbta.com/stops/11694,
117,Congress St @ Haymarket Sta,,42.361847,-71.057724,,0,,1,117,,,,https://www.mbta.com/stops/117,
1170,Washington St @ ML King Blvd,,42.321749,-71.091752,,0,,0,1170,,,,https://www.mbta.com/stops/1170,
11712,Blue Hill Ave @ Morton St,,42.284143,-71.091674,,0,,0,11712,,,,https://www.mbta.com/stops/11712,
11719,Blue Hill Ave opp Babson St,,42.270168,-71.093907,,0,,1,11719,,,,https://www.mbta.com/stops/11719,
1172,Washington St @ Dale St,,42.323294,-71.089573,,0,,1,1172,,,,https://www.mbta.com/stops/1172,
1173,Washington St opp Cedar St,,42.324102,-71.088808,,0,,0,1173,,,,https://www.mbta.com/stops/1173,
11735,Ames St @ Franklin Field,,42.290104,-71.082689,,0,,0,11735,,,,https://www.mbta.com/stops/11735,
11736,Ames St @ Westview St,,42.290612,-71.086389,,0,,0,11736,,,,https://www.mbta.com/stops/11736,
1174,Washington St @ Circuit Terr,,42.325827,-71.087772,,0,,1,1174,,,,https://www.mbta.com/stops/1174,
1175,Washington St @ St James St,,42.327276,-71.087149,,0,,1,1175,,,,https://www.mbta.com/stops/1175,
11771,Vassar St @ Massachusetts Ave,,42.360230,-71.094815,,0,,0,11771,,,,https://www.mbta.com/stops/11771,
1178,Washington St @ Bartlett St,,42.327638,-71.087124,,0,,1,1178,,,,https://www.mbta.com/stops/1178,
11780,Ave Louis Pasteur @ Longwood Ave,,42.337969,-71.102457,,0,,1,11780,,,,https://www.mbta.com/stops/11780,
11781,Ave Louis Pasteur @ The Fenway,,42.340233,-71.100839,,0,,1,11781,,,,https://www.mbta.com/stops/11781,
1179,Washington St @ Guild St,,42.326035,-71.087812,,0,,0,1179,,,,https://www.mbta.com/stops/1179,
11792,Harrison Ave @ Melnea Cass Blvd,,42.332146,-71.079293,,0,,1,11792,,,,https://www.mbta.com/stops/11792,
11799,Ave Louis Pasteur @ The Fenway,,42.340274,-71.100979,,0,,0,11799,,,,https://www.mbta.com/stops/11799,
118,Causeway St @ Medford St,,42.366283,-71.059491,,0,,0,118,,,,https://www.mbta.com/stops/118,
1180,Washington St @ Cedar St,,42.324307,-71.088773,,0,,1,1180,,,,https://www.mbta.com/stops/1180,
11802,Ave Louis Pasteur @ Longwood Ave,,42.338473,-71.102334,,0,,1,11802,,,,https://www.mbta.com/stops/11802,
11803,Longwood Ave @ Binney St,,42.338207,-71.105846,,0,,1,11803,,,,https://www.mbta.com/stops/11803,
11809,Mountfort St @ Carlton St,,42.348846,-71.108581,,0,,0,11809,,,,https://www.mbta.com/stops/11809,
1181,Washington St @ Oakland St,,42.323462,-71.089600,,0,,1,1181,,,,https://www.mbta.com/stops/1181,
1182,Washington St @ Valentine St,,42.321772,-71.091899,,0,,0,1182,,,,https://www.mbta.com/stops/1182,
1183,Washington St @ Marcella St,,42.320851,-71.093122,,0,,1,1183,,,,https://www.mbta.com/stops/1183,
11835,Chestnut Hill Ave opp Buckminster Rd,,42.332315,-71.146793,,0,,0,11835,,,,https://www.mbta.com/stops/11835,
11836,145 Grove St opp Bellingham Rd,,42.304467,-71.150105,,0,,0,11836,,,,https://www.mbta.com/stops/11836,
11837,Grove St @ South St,,42.302638,-71.152249,,0,,0,11837,,,,https://www.mbta.com/stops/11837,
11839,Corey St @ LaGrange St,,42.300386,-71.169857,,0,,2,11839,,,,https://www.mbta.com/stops/11839,
1184,Washington St opp Townsend St,,42.320155,-71.094006,,0,,0,1184,,,,https://www.mbta.com/stops/1184,
11845,Chestnut Hill Ave @ Ackers Ave,,42.329972,-71.146011,,0,,0,11845,,,,https://www.mbta.com/stops/11845,
1185,Washington St @ Dimock St,,42.318908,-71.095290,,0,,1,1185,,,,https://www.mbta.com/stops/1185,
11853,Chestnut St opp Oak St,,42.277023,-71.237377,,0,,0,11853,,,,https://www.mbta.com/stops/11853,
1186,Washington St @ Bragdon St,,42.317415,-71.096775,,0,,1,1186,,,,https://www.mbta.com/stops/1186,
11860,Robert St @ Belgrade Ave,,42.286760,-71.131106,,0,,1,11860,,,,https://www.mbta.com/stops/11860,
11868,5 Walter St opp Hewlett St,,42.289151,-71.133832,,0,,1,11868,,,,https://www.mbta.com/stops/11868,
1187,Washington St @ Columbus Ave,,42.316299,-71.097858,,0,,1,1187,,,,https://www.mbta.com/stops/1187,
1188,1990 Columbus Ave,,42.315394,-71.097816,,0,,1,1188,,,,https://www.mbta.com/stops/1188,
1189,Cambridge St @ Mass Pike,,42.360808,-71.118665,,0,,2,1189,,,,https://www.mbta.com/stops/1189,
11891,Pearl St @ Congress St,,42.357495,-71.056251,,0,,1,11891,,,,https://www.mbta.com/stops/11891,
1190,Cambridge St @ Seattle St,,42.358890,-71.123853,,0,,1,1190,,,,https://www.mbta.com/stops/1190,
1191,Cambridge St @ Lincoln St,,42.357458,-71.128045,,0,,1,1191,,,,https://www.mbta.com/stops/1191,
11917,Chestnut Hill Ave @ Buckminster Rd,,42.332414,-71.146719,,0,,0,11917,,,,https://www.mbta.com/stops/11917,
1193,Cambridge St @ Franklin St,,42.355551,-71.132875,,0,,1,1193,,,,https://www.mbta.com/stops/1193,
11939,Centre St @ Eliot St,,42.309651,-71.115764,,0,,1,11939,,,,https://www.mbta.com/stops/11939,
1195,Cambridge St @ Emery Rd,,42.354278,-71.135846,,0,,1,1195,,,,https://www.mbta.com/stops/1195,
1196,N Beacon St @ Cambridge St,,42.353748,-71.138128,,0,,1,1196,,,,https://www.mbta.com/stops/1196,
1197,N Beacon St opp Saunders St,,42.354360,-71.141738,,0,,1,1197,,,,https://www.mbta.com/stops/1197,
11971,Arthur St @ Guest St - Stop & Shop,,42.356306,-71.141461,,0,,1,11971,,,,https://www.mbta.com/stops/11971,
11972,Guest St @ Life St,,42.357109,-71.145623,,0,,0,11972,,,,https://www.mbta.com/stops/11972,
119863,Shirley St @ Winthrop Ferry Terminal,,42.367208,-70.970606,,0,,1,119863,,,,https://www.mbta.com/stops/119863,
1199,N Beacon St @ Life St,,42.355510,-71.146275,,0,,1,1199,,,,https://www.mbta.com/stops/1199,
119913,Shirley St opp Winthrop Ferry Terminal,,42.367336,-70.970580,,0,,0,119913,,,,https://www.mbta.com/stops/119913,
120,Rivermoor St @ Industrial Park,,42.278446,-71.177808,,0,,2,120,,,,https://www.mbta.com/stops/120,
1200,N Beacon St @ Market St,,42.356163,-71.148811,,0,,1,1200,,,,https://www.mbta.com/stops/1200,
1202,N Beacon St @ Vineland St,,42.357187,-71.152796,,0,,0,1202,,,,https://www.mbta.com/stops/1202,
1203,N Beacon St @ Birmingham Pkwy,,42.357994,-71.154394,,0,,2,1203,,,,https://www.mbta.com/stops/1203,
1204,Birmingham Pkwy @ Soldiers Field Rd,,42.358663,-71.157969,,0,,1,1204,,,,https://www.mbta.com/stops/1204,
1206,Hobart St @ Brooks St,,42.355432,-71.162380,,0,,0,1206,,,,https://www.mbta.com/stops/1206,
1208,Hobart St @ Falkland St,,42.354751,-71.158514,,0,,0,1208,,,,https://www.mbta.com/stops/1208,
12081,Faneuil St @ Donnybrook Rd,,42.353889,-71.158537,,0,,1,12081,,,,https://www.mbta.com/stops/12081,
121,JFK/UMass,JFK/UMass - Busway,42.320511,-71.051780,level_ground,0,place-jfk,0,121,,Busway,,https://www.mbta.com/stops/place-jfk,
1210,Faneuil St opp Garfield School,,42.352673,-71.160986,,0,,0,1210,,,,https://www.mbta.com/stops/1210,
121008,Curry College,,42.235159,-71.111037,,0,,0,121008,,,,https://www.mbta.com/stops/121008,
121009,Blue Hill Ave from Curry Coll to Canton Ave (FLAG),,42.226417,-71.116431,,0,,0,121009,,,,https://www.mbta.com/stops/121009,
121010,Opp 1904 Canton Ave @ Trailside Museum,,42.218345,-71.119520,,0,,2,121010,,,,https://www.mbta.com/stops/121010,
121011,Royall St @ Compushare Driveway,,42.207226,-71.134842,,0,,0,121011,,,,https://www.mbta.com/stops/121011,
121012,Royall St @ Beacon Lane,,42.207967,-71.131106,,0,,1,121012,,,,https://www.mbta.com/stops/121012,
121013,Royall St @ Dunkin Brands Driveway,,42.208061,-71.129262,,0,,0,121013,,,,https://www.mbta.com/stops/121013,
121014,Royall St @ JW Foster Blvd,,42.207886,-71.124052,,0,,1,121014,,,,https://www.mbta.com/stops/121014,
121017,1904 Canton Ave @ Trailside Museum,,42.218305,-71.119251,,0,,0,121017,,,,https://www.mbta.com/stops/121017,
121019,Blue Hill Ave opp Curry College,,42.234934,-71.110934,,0,,2,121019,,,,https://www.mbta.com/stops/121019,
1211,Faneuil St @ Brooks St,,42.352456,-71.163066,,0,,0,1211,,,,https://www.mbta.com/stops/1211,
1212,Faneuil St @ Brackett St,,42.352056,-71.165030,,0,,0,1212,,,,https://www.mbta.com/stops/1212,
1213,Faneuil St @ Bigelow St,,42.351254,-71.167478,,0,,0,1213,,,,https://www.mbta.com/stops/1213,
1214,Faneuil St @ Oak Square,,42.351196,-71.167349,,0,,0,1214,,,,https://www.mbta.com/stops/1214,
12144,Huron Ave opp Park Ave,,42.378978,-71.148527,,0,,0,12144,,,,https://www.mbta.com/stops/12144,
12145,Huron Ave opp VFW Post 8818,,42.380160,-71.152585,,0,,0,12145,,,,https://www.mbta.com/stops/12145,
12146,Opp 700 Huron Ave,,42.381261,-71.154599,,0,,0,12146,,,,https://www.mbta.com/stops/12146,
12147,700 Huron Ave,,42.381181,-71.154670,,0,,0,12147,,,,https://www.mbta.com/stops/12147,
12148,Huron Ave @ VFW Post 8818,,42.380047,-71.152582,,0,,0,12148,,,,https://www.mbta.com/stops/12148,
12149,Huron Ave @ Park Ave,,42.378874,-71.148476,,0,,0,12149,,,,https://www.mbta.com/stops/12149,
1215,Columbus Ave @ Bray St,,42.317244,-71.098115,,0,,0,1215,,,,https://www.mbta.com/stops/1215,
1216,Columbus Ave @ Dimock St,,42.319449,-71.098160,,0,,0,1216,,,,https://www.mbta.com/stops/1216,
1218,Columbus Ave @ Ritchie St,,42.322310,-71.098264,,0,,0,1218,,,,https://www.mbta.com/stops/1218,
1219,Columbus Ave @ Centre St,,42.325015,-71.098080,,0,,0,1219,,,,https://www.mbta.com/stops/1219,
122,Columbia Rd @ Dorchester Ave,,42.320660,-71.056974,,0,,1,122,,,,https://www.mbta.com/stops/122,
1221,Columbus Ave @ Cedar St,,42.328012,-71.096921,,0,,0,1221,,,,https://www.mbta.com/stops/1221,
1222,Columbus Ave @ Malcolm X Blvd,,42.331191,-71.094468,,0,,1,1222,,,,https://www.mbta.com/stops/1222,
12231,Ames St @ Broadway,,42.363498,-71.087704,,0,,0,12231,,,,https://www.mbta.com/stops/12231,
1224,Tremont St opp Prentiss St,,42.332706,-71.092343,,0,,1,1224,,,,https://www.mbta.com/stops/1224,
1226,Tremont St @ Ruggles St,,42.334793,-71.088549,,0,,0,1226,,,,https://www.mbta.com/stops/1226,
1227,Tremont St @ Melnea Cass Blvd,,42.335698,-71.086826,,0,,0,1227,,,,https://www.mbta.com/stops/1227,
1228,Tremont St @ Hammond St,,42.337226,-71.084022,,0,,0,1228,,,,https://www.mbta.com/stops/1228,
12295,North Cambridge Carhouse,,42.396704,-71.129116,,0,,0,12295,,,,https://www.mbta.com/stops/12295,
123,Columbia Rd opp Pond St,,42.320046,-71.059996,,0,,0,123,,,,https://www.mbta.com/stops/123,
1230,Tremont St @ Northampton St,,42.338746,-71.081156,,0,,1,1230,,,,https://www.mbta.com/stops/1230,
12301,Massachusetts Ave @ Upland Rd,,42.388229,-71.119545,,0,,1,12301,,,,https://www.mbta.com/stops/12301,
1231,Tremont St @ W Springfield St,,42.339584,-71.079623,,0,,1,1231,,,,https://www.mbta.com/stops/1231,
1232,Tremont St @ W Concord St,,42.340407,-71.078156,,0,,1,1232,,,,https://www.mbta.com/stops/1232,
12323,Park Ave @ Oakland Ave,,42.417802,-71.180683,,0,,1,12323,,,,https://www.mbta.com/stops/12323,
1233,Tremont St @ W Newton St,,42.341236,-71.076653,,0,,1,1233,,,,https://www.mbta.com/stops/1233,
1234,Tremont St @ W Brookline St,,42.341887,-71.075413,,0,,1,1234,,,,https://www.mbta.com/stops/1234,
1235,Tremont St @ W Dedham St,,42.342666,-71.073943,,0,,1,1235,,,,https://www.mbta.com/stops/1235,
12352,Lake St @ Pleasant St,,42.405298,-71.164065,,0,,0,12352,,,,https://www.mbta.com/stops/12352,
1236,Tremont St @ Waltham St,,42.343873,-71.071653,,0,,1,1236,,,,https://www.mbta.com/stops/1236,
12360,Park Ave @ Park Circle,,42.415312,-71.180414,,0,,0,12360,,,,https://www.mbta.com/stops/12360,
1237,Tremont St @ E Berkeley St,,42.345145,-71.069868,,0,,1,1237,,,,https://www.mbta.com/stops/1237,
12376,Winthrop St @ Orchard St,,42.413057,-71.120846,,0,,0,12376,,,,https://www.mbta.com/stops/12376,
1238,Tremont St @ Herald St,,42.347363,-71.068607,,0,,1,1238,,,,https://www.mbta.com/stops/1238,
1239,Tremont St @ Marginal St,,42.348180,-71.067595,,0,,1,1239,,,,https://www.mbta.com/stops/1239,
124,Massachusetts Ave @ Columbia Rd,,42.320623,-71.061567,,0,,0,124,,,,https://www.mbta.com/stops/124,
1241,Charles St S @ Park Plaza,,42.351748,-71.067101,,0,,1,1241,,,,https://www.mbta.com/stops/1241,
1242,Tremont St @ Charles St S,,42.348777,-71.066481,,0,,0,1242,,,,https://www.mbta.com/stops/1242,
12432,West Service Rd @ Spring St,,42.408189,-71.169767,,0,,0,12432,,,,https://www.mbta.com/stops/12432,
1246,Tremont St @ Union Pk,,42.343673,-71.072264,,0,,1,1246,,,,https://www.mbta.com/stops/1246,
12465,Wadsworth Rd @ Appleton St,,42.417136,-71.199535,,0,,0,12465,,,,https://www.mbta.com/stops/12465,
12468,Appleton St @ Virginia Rd,,42.418807,-71.191934,,0,,0,12468,,,,https://www.mbta.com/stops/12468,
1247,Tremont St @ Dartmouth St,,42.342910,-71.073690,,0,,1,1247,,,,https://www.mbta.com/stops/1247,
1248,Tremont St @ Pembroke St,,42.341738,-71.075917,,0,,1,1248,,,,https://www.mbta.com/stops/1248,
1249,Tremont St @ Rutland Sq,,42.341006,-71.077301,,0,,1,1249,,,,https://www.mbta.com/stops/1249,
125,Massachusetts Ave @ Clapp St,,42.323479,-71.063945,,0,,0,125,,,,https://www.mbta.com/stops/125,
1250,Tremont St @ Worcester St,,42.340187,-71.078787,,0,,1,1250,,,,https://www.mbta.com/stops/1250,
1251,Tremont St @ W Springfield St,,42.339703,-71.079768,,0,,1,1251,,,,https://www.mbta.com/stops/1251,
1252,Tremont St @ Northampton St,,42.338955,-71.081129,,0,,1,1252,,,,https://www.mbta.com/stops/1252,
1253,Tremont St @ Douglas Pk,,42.337824,-71.083178,,0,,1,1253,,,,https://www.mbta.com/stops/1253,
1254,Tremont St @ Burke St,,42.336908,-71.084800,,0,,1,1254,,,,https://www.mbta.com/stops/1254,
1255,Tremont St @ Columbus Ave,,42.335779,-71.086948,,0,,1,1255,,,,https://www.mbta.com/stops/1255,
1257,Tremont St @ Prentiss St,,42.333071,-71.092378,,0,,1,1257,,,,https://www.mbta.com/stops/1257,
1258,Tremont St @ Roxbury Crossing Station,,42.331311,-71.094831,,0,place-rcmnl,1,1258,,,,https://www.mbta.com/stops/place-rcmnl,
1259,Malcolm X Blvd opp Madison Park HS,,42.331090,-71.090881,,0,,1,1259,,,,https://www.mbta.com/stops/1259,
126,Massachusetts Ave @ Allstate Rd,,42.324659,-71.064919,,0,,1,126,,,,https://www.mbta.com/stops/126,
1260,Columbus Ave @ New Cedar St,,42.328067,-71.097310,,0,,0,1260,,,,https://www.mbta.com/stops/1260,
12610,Somerville Ave @ Merriam St,,42.378242,-71.091691,,0,,1,12610,,,,https://www.mbta.com/stops/12610,
12614,Waterhouse St @ Massachusetts Ave,,42.377759,-71.120538,,0,,0,12614,,,,https://www.mbta.com/stops/12614,
12615,Somerville Ave @ Church St,,42.381485,-71.100331,,0,,1,12615,,,,https://www.mbta.com/stops/12615,
12616,Somerville Ave @ School St,,42.381998,-71.101852,,0,,1,12616,,,,https://www.mbta.com/stops/12616,
12618,Washington St opp Harris St,,42.249233,-71.172161,,0,,0,12618,,,,https://www.mbta.com/stops/12618,
1262,Columbus Ave @ Heath St,,42.325028,-71.098483,,0,,0,1262,,,,https://www.mbta.com/stops/1262,
12636,Broadway opp Clarendon Hill Busway,,42.406461,-71.132577,,0,,1,12636,,,,https://www.mbta.com/stops/12636,
12637,Broadway @ Sunnyside Ave,,42.407393,-71.134568,,0,,0,12637,,,,https://www.mbta.com/stops/12637,
12638,Broadway @ Silk St,,42.408056,-71.135976,,0,,1,12638,,,,https://www.mbta.com/stops/12638,
12639,Broadway opp Cleveland St,,42.408827,-71.137590,,0,,1,12639,,,,https://www.mbta.com/stops/12639,
1264,Columbus Ave @ Amory St,,42.322363,-71.098628,,0,,1,1264,,,,https://www.mbta.com/stops/1264,
12640,Broadway @ N Union St,,42.409650,-71.139285,,0,,1,12640,,,,https://www.mbta.com/stops/12640,
12641,Broadway opp Harlow St,,42.410664,-71.141393,,0,,0,12641,,,,https://www.mbta.com/stops/12641,
12642,Broadway @ Tufts St,,42.411537,-71.143421,,0,,1,12642,,,,https://www.mbta.com/stops/12642,
12643,Broadway @ Allen St,,42.412422,-71.145571,,0,,0,12643,,,,https://www.mbta.com/stops/12643,
12645,Broadway @ Massachusetts Ave,,42.414341,-71.150282,,0,,1,12645,,,,https://www.mbta.com/stops/12645,
12648,Broadway @ Allen St,,42.412312,-71.145561,,0,,0,12648,,,,https://www.mbta.com/stops/12648,
12649,Broadway @ Tufts St,,42.411425,-71.143411,,0,,1,12649,,,,https://www.mbta.com/stops/12649,
1265,Columbus Ave @ Dimock St,,42.319455,-71.098496,,0,,0,1265,,,,https://www.mbta.com/stops/1265,
12650,Broadway @ Harlow St,,42.410554,-71.141394,,0,,0,12650,,,,https://www.mbta.com/stops/12650,
12651,Broadway @ Oxford St,,42.409520,-71.139313,,0,,0,12651,,,,https://www.mbta.com/stops/12651,
12652,Broadway @ Cleveland St,,42.408588,-71.137313,,0,,0,12652,,,,https://www.mbta.com/stops/12652,
12653,Broadway opp Silk St,,42.407932,-71.135960,,0,,0,12653,,,,https://www.mbta.com/stops/12653,
12654,Broadway opp Sunnyside Ave,,42.407284,-71.134563,,0,,0,12654,,,,https://www.mbta.com/stops/12654,
1266,Columbus Ave @ W Walnut Pk,,42.317066,-71.098434,,0,,0,1266,,,,https://www.mbta.com/stops/1266,
1267,Columbus Ave @ Washington St,,42.315895,-71.098397,,0,,0,1267,,,,https://www.mbta.com/stops/1267,
1268,Washington St @ Shepard St,,42.348224,-71.149882,,0,,1,1268,,,,https://www.mbta.com/stops/1268,
1269,Washington St @ Snow St,,42.346880,-71.148221,,0,,1,1269,,,,https://www.mbta.com/stops/1269,
1270,Washington St @ Monastery Rd,,42.346111,-71.146379,,0,,0,1270,,,,https://www.mbta.com/stops/1270,
1272,Washington St @ Euston St,,42.344633,-71.144682,,0,,1,1272,,,,https://www.mbta.com/stops/1272,
1273,Washington St @ Commonwealth Ave,,42.343868,-71.143266,,0,,1,1273,,,,https://www.mbta.com/stops/1273,
1274,Washington St @ Corey Rd,,42.342394,-71.140567,,0,,1,1274,,,,https://www.mbta.com/stops/1274,
1275,Wahington St @ Evans Rd,,42.341042,-71.137945,,0,,0,1275,,,,https://www.mbta.com/stops/1275,
12759,Washington St @ Myrtle St - Cobble Hill Apt,,42.381697,-71.084052,,0,,0,12759,,,,https://www.mbta.com/stops/12759,
1276,Washington St @ Beacon St,,42.339516,-71.135747,,0,place-bcnwa,0,1276,,,,https://www.mbta.com/stops/place-bcnwa,
12767,Springfield St opp Houghton St,,42.375283,-71.100063,,0,,0,12767,,,,https://www.mbta.com/stops/12767,
1277,684 Washington St,,42.338723,-71.134258,,0,,0,1277,,,,https://www.mbta.com/stops/1277,
1278,Washington St @ Winthrop Path,,42.338307,-71.131602,,0,,1,1278,,,,https://www.mbta.com/stops/1278,
12783,Gordon Ave @ Summer St,,42.256320,-71.125999,,0,,0,12783,,,,https://www.mbta.com/stops/12783,
12789,West St @ Lodge Hill Rd,,42.264777,-71.127641,,0,,0,12789,,,,https://www.mbta.com/stops/12789,
1279,Washington St @ Gardner Rd,,42.338412,-71.129157,,0,,0,1279,,,,https://www.mbta.com/stops/1279,
128,1010 Massachusetts Ave opp Magazine St,,42.327984,-71.067744,,0,,1,128,,,,https://www.mbta.com/stops/128,
1280,Washington St @ Gardner Path,,42.336982,-71.126480,,0,,1,1280,,,,https://www.mbta.com/stops/1280,
1281,Washington St @ Greenough Circle,,42.335129,-71.124667,,0,,1,1281,,,,https://www.mbta.com/stops/1281,
12812,West St opp Lodge Hill Rd,,42.264668,-71.127671,,0,,0,12812,,,,https://www.mbta.com/stops/12812,
